[
  {
    "org": "家樂福",
    "branches": [
      {
        "name": "台北同安店（超市）",
        "address": "100 台北市中正區同安街71號",
        "hours": "無",
        "phone": "02-2365-1672",
        "fax": "02-2365-3711",
        "coordinates": "25.0234024,121.5213374",
        "transportation": "無",
        "parking": "汽車17位、機車107位。汽車50元/小時、機車10元/小時 前1小時免費。",
        "accepted_items": "米、麵條、麥片、糖、鹽、料理包、泡麵、牙膏、牙刷、肥皂、毛巾、家用清潔劑、洗衣粉、沐浴乳、洗髮精、抹布、成人奶粉、嬰兒奶粉、罐頭、食用油、醬油調味料、成人紙尿布、嬰兒紙尿布、衛生紙/棉",
        "notes": "列表為建議捐贈品，實際狀況請恰分店人員。",
        "maps_url": "https://maps.apple/p/URPkXS-iKJBYZQ"
      },
      {
        "name": "台北濟南店（超市）",
        "address": "100 台北市中正區濟南路2段46號B1",
        "hours": "公車：濟南金山路口 211；捷運：忠孝新生5號出口",
        "phone": "02-2321-1262",
        "fax": "02-2321-1252",
        "coordinates": "25.0403535,121.5308968",
        "transportation": "公車：濟南金山路口 211；捷運：忠孝新生5號出口",
        "parking": "無",
        "accepted_items": "米、麵條、麥片、糖、鹽、料理包、泡麵、牙膏、牙刷、肥皂、毛巾、家用清潔劑、洗衣粉、沐浴乳、洗髮精、抹布、成人奶粉、嬰兒奶粉、罐頭、食用油、醬油調味料、成人紙尿布、嬰兒紙尿布、衛生紙/棉",
        "notes": "列表為建議捐贈品，實際狀況請恰分店人員。",
        "maps_url": "https://maps.apple/p/gYP3I-X4aArCFd"
      },
      {
        "name": "台北太原店（超市）",
        "address": "103 台北市大同區太原路155、157號",
        "hours": "無",
        "phone": "02-2558-4038、02-2558-6525",
        "fax": "02-2550-7224",
        "coordinates": "25.0553624,121.5167614",
        "transportation": "無",
        "parking": "無",
        "accepted_items": "米、麵條、麥片、糖、鹽、料理包、泡麵、牙膏、牙刷、肥皂、毛巾、家用清潔劑、洗衣粉、沐浴乳、洗髮精、抹布、成人奶粉、嬰兒奶粉、罐頭、食用油、醬油調味料、成人紙尿布、嬰兒紙尿布、衛生紙/棉",
        "notes": "列表為建議捐贈品，實際狀況請恰分店人員。",
        "maps_url": "https://maps.apple/p/frnMNJ195MrQm3"
      },
      {
        "name": "台北酒泉店（超市）",
        "address": "103 台北市大同區酒泉街105號 ",
        "hours": "無",
        "phone": "02-2593-3600、02-2593-3033",
        "fax": "02-2599-5698",
        "coordinates": "25.0721223,121.5152345",
        "transportation": "無",
        "parking": "無",
        "accepted_items": "米、麵條、麥片、糖、鹽、料理包、泡麵、牙膏、牙刷、肥皂、毛巾、家用清潔劑、洗衣粉、沐浴乳、洗髮精、抹布、成人奶粉、嬰兒奶粉、罐頭、食用油、醬油調味料、成人紙尿布、嬰兒紙尿布、衛生紙/棉",
        "notes": "列表為建議捐贈品，實際狀況請恰分店人員。",
        "maps_url": "https://maps.apple/p/6dA~vdcZsWePY4"
      },
      {
        "name": "台北重慶北店（超市）",
        "address": "103 台北市大同區重慶北路1段73號B1",
        "hours": "無",
        "phone": "02-2555-9081~2",
        "fax": "02-2559-9180",
        "coordinates": "25.0522524,121.5142459",
        "transportation": "無",
        "parking": "無",
        "accepted_items": "米、麵條、麥片、糖、鹽、料理包、泡麵、牙膏、牙刷、肥皂、毛巾、家用清潔劑、洗衣粉、沐浴乳、洗髮精、抹布、成人奶粉、嬰兒奶粉、罐頭、食用油、醬油調味料、成人紙尿布、嬰兒紙尿布、衛生紙/棉",
        "notes": "列表為建議捐贈品，實際狀況請恰分店人員。",
        "maps_url": "https://maps.apple/p/_baLFojcXZjSX0"
      },
      {
        "name": "重慶店（量販）",
        "address": "103 台北市大同區重慶北路2段171號",
        "hours": "公車：靜修女中站 紅33，39正，539，42，518，613， 42，518，539",
        "phone": "02-2553-7389",
        "fax": "02-2553-7368",
        "coordinates": "25.0590131,121.5138152",
        "transportation": "公車：靜修女中站 紅33，39正，539，42，518，613， 42，518，539",
        "parking": "汽車479位、機車563位。購物滿額免停車費。",
        "accepted_items": "米、麵條、麥片、糖、鹽、料理包、泡麵、牙膏、牙刷、肥皂、毛巾、家用清潔劑、洗衣粉、沐浴乳、洗髮精、抹布、成人奶粉、嬰兒奶粉、罐頭、食用油、醬油調味料、成人紙尿布、嬰兒紙尿布、衛生紙/棉、貓狗飼料和罐頭",
        "notes": "列表為建議捐贈品，實際狀況請恰分店人員。詳情：https://www.carrefour.com.tw/store-info/?store=重慶店#tab=info",
        "maps_url": "https://maps.apple/p/~ik8BFeTVHJxvg"
      },
      {
        "name": "台北北安店（超市）",
        "address": "104 台北市中山區北安路595巷11-13號",
        "hours": "無",
        "phone": "02-2533-7796~7",
        "fax": "02-8509-5956",
        "coordinates": "25.0822597,121.5478945",
        "transportation": "無",
        "parking": "無",
        "accepted_items": "米、麵條、麥片、糖、鹽、料理包、泡麵、牙膏、牙刷、肥皂、毛巾、家用清潔劑、洗衣粉、沐浴乳、洗髮精、抹布、成人奶粉、嬰兒奶粉、罐頭、食用油、醬油調味料、成人紙尿布、嬰兒紙尿布、衛生紙/棉",
        "notes": "列表為建議捐贈品，實際狀況請恰分店人員。",
        "maps_url": "https://maps.apple/p/cRRY3ACf5g.y~2"
      },
      {
        "name": "大直明水店（超市）",
        "address": "104 台北市中山區明水路575號B1 ",
        "hours": "敬請期待",
        "phone": "02-7744-7789",
        "fax": "無",
        "coordinates": "25.0798809,121.5519311",
        "transportation": "敬請期待",
        "parking": "汽車30位。滿300元消費折抵1小時。",
        "accepted_items": "米、麵條、麥片、糖、鹽、料理包、泡麵、牙膏、牙刷、肥皂、毛巾、家用清潔劑、洗衣粉、沐浴乳、洗髮精、抹布、成人奶粉、嬰兒奶粉、罐頭、食用油、醬油調味料、成人紙尿布、嬰兒紙尿布、衛生紙/棉",
        "notes": "列表為建議捐贈品，實際狀況請恰分店人員。",
        "maps_url": "https://maps.apple/p/zfUV6PGY2nyU3u"
      },
      {
        "name": "台北林森北店（超市）",
        "address": "104 台北市中山區林森北路413號B1",
        "hours": "無",
        "phone": "02-2525-3663、02-2525-3664",
        "fax": "02-2561-4329",
        "coordinates": "25.0597657,121.5257107",
        "transportation": "無",
        "parking": "無",
        "accepted_items": "米、麵條、麥片、糖、鹽、料理包、泡麵、牙膏、牙刷、肥皂、毛巾、家用清潔劑、洗衣粉、沐浴乳、洗髮精、抹布、成人奶粉、嬰兒奶粉、罐頭、食用油、醬油調味料、成人紙尿布、嬰兒紙尿布、衛生紙/棉",
        "notes": "列表為建議捐贈品，實際狀況請恰分店人員。",
        "maps_url": "https://maps.apple/p/rQuFt4_.yEAgmE"
      },
      {
        "name": "台北農安店（超市）",
        "address": "104 台北市中山區農安街257、259號 ",
        "hours": "無",
        "phone": "02-2504-7952、02-2504-7942",
        "fax": "02-2504-7945",
        "coordinates": "25.0647868,121.5354344",
        "transportation": "無",
        "parking": "無",
        "accepted_items": "米、麵條、麥片、糖、鹽、料理包、泡麵、牙膏、牙刷、肥皂、毛巾、家用清潔劑、洗衣粉、沐浴乳、洗髮精、抹布、成人奶粉、嬰兒奶粉、罐頭、食用油、醬油調味料、成人紙尿布、嬰兒紙尿布、衛生紙/棉",
        "notes": "列表為建議捐贈品，實際狀況請恰分店人員。",
        "maps_url": "https://maps.apple/p/QC7Dj4JMDIbyCV"
      },
      {
        "name": "台北農安二店（超市）",
        "address": "104 台北市中山區農安街26號、26-1號",
        "hours": "無",
        "phone": "02-2599-2851、02-2599-1650",
        "fax": "02-2599-7449",
        "coordinates": "25.0652392,121.5292151",
        "transportation": "無",
        "parking": "無",
        "accepted_items": "米、麵條、麥片、糖、鹽、料理包、泡麵、牙膏、牙刷、肥皂、毛巾、家用清潔劑、洗衣粉、沐浴乳、洗髮精、抹布、成人奶粉、嬰兒奶粉、罐頭、食用油、醬油調味料、成人紙尿布、嬰兒紙尿布、衛生紙/棉",
        "notes": "列表為建議捐贈品，實際狀況請恰分店人員。",
        "maps_url": "https://maps.apple/p/rMUUksaHRhhx2D"
      },
      {
        "name": "台北錦州店（超市）",
        "address": "104 台北市中山區錦州街276號",
        "hours": "公車：民權松江路口 5，63，214直，225區，49，214，225，617、建國錦州街口 298，298區，1960；捷運：新蘆線行天宮站\n\n",
        "phone": "02-7723-4350",
        "fax": "02-2501-6960",
        "coordinates": "25.06023,121.5349691",
        "transportation": "公車：民權松江路口 5，63，214直，225區，49，214，225，617、建國錦州街口 298，298區，1960；捷運：新蘆線行天宮站\n\n",
        "parking": "無",
        "accepted_items": "米、麵條、麥片、糖、鹽、料理包、泡麵、牙膏、牙刷、肥皂、毛巾、家用清潔劑、洗衣粉、沐浴乳、洗髮精、抹布、成人奶粉、嬰兒奶粉、罐頭、食用油、醬油調味料、成人紙尿布、嬰兒紙尿布、衛生紙/棉",
        "notes": "列表為建議捐贈品，實際狀況請恰分店人員。",
        "maps_url": "https://maps.apple/p/7jqkdsN_bubFit"
      },
      {
        "name": "台北長安東店（超市）",
        "address": "104 台北市中山區長安東路二段63、63-1、63-2號",
        "hours": "無",
        "phone": "02-2507-1687、02-2507-9903",
        "fax": "02-2507-8357",
        "coordinates": "25.0485443,121.5336672",
        "transportation": "無",
        "parking": "無",
        "accepted_items": "米、麵條、麥片、糖、鹽、料理包、泡麵、牙膏、牙刷、肥皂、毛巾、家用清潔劑、洗衣粉、沐浴乳、洗髮精、抹布、成人奶粉、嬰兒奶粉、罐頭、食用油、醬油調味料、成人紙尿布、嬰兒紙尿布、衛生紙/棉",
        "notes": "列表為建議捐贈品，實際狀況請恰分店人員。",
        "maps_url": "https://maps.apple/p/wRsBBRs50IQS~m"
      },
      {
        "name": "三民店（量販）",
        "address": "105 台北市松山區三民路160號",
        "hours": "公車：三民國小站 12 ，225，214，617，630，902，903，905，R29，R31，R32，藍26",
        "phone": "02-2767-0702",
        "fax": "02-2763-4562",
        "coordinates": "25.0616467,121.5635579",
        "transportation": "公車：三民國小站 12 ，225，214，617，630，902，903，905，R29，R31，R32，藍26",
        "parking": "汽車272位、機車266位、殘障5位、親子3位。40元/小時 前半小時免費。",
        "accepted_items": "米、麵條、麥片、糖、鹽、料理包、泡麵、牙膏、牙刷、肥皂、毛巾、家用清潔劑、洗衣粉、沐浴乳、洗髮精、抹布、成人奶粉、嬰兒奶粉、罐頭、食用油、醬油調味料、成人紙尿布、嬰兒紙尿布、衛生紙/棉、貓狗飼料和罐頭",
        "notes": "列表為建議捐贈品，實際狀況請恰分店人員。詳情：https://www.carrefour.com.tw/store-info/?store=三民店#tab=info",
        "maps_url": "https://maps.apple/p/panqxc~n6NPt73"
      },
      {
        "name": "台北光復店（超市）",
        "address": "105 台北市松山區光復北路198號",
        "hours": "無",
        "phone": "02-2546-9080",
        "fax": "02-2545-4098",
        "coordinates": "25.0549709,121.5556125",
        "transportation": "無",
        "parking": "無",
        "accepted_items": "米、麵條、麥片、糖、鹽、料理包、泡麵、牙膏、牙刷、肥皂、毛巾、家用清潔劑、洗衣粉、沐浴乳、洗髮精、抹布、成人奶粉、嬰兒奶粉、罐頭、食用油、醬油調味料、成人紙尿布、嬰兒紙尿布、衛生紙/棉",
        "notes": "列表為建議捐贈品，實際狀況請恰分店人員。",
        "maps_url": "https://maps.apple/p/XQGMe3BdT~NB~p"
      },
      {
        "name": "台北八德店（超市）",
        "address": "105 台北市松山區八德路四段83號",
        "hours": "無",
        "phone": "02-2742-3398、02-2742-3397",
        "fax": "02-2742-3395",
        "coordinates": "25.0485524,121.5603178",
        "transportation": "無",
        "parking": "無",
        "accepted_items": "米、麵條、麥片、糖、鹽、料理包、泡麵、牙膏、牙刷、肥皂、毛巾、家用清潔劑、洗衣粉、沐浴乳、洗髮精、抹布、成人奶粉、嬰兒奶粉、罐頭、食用油、醬油調味料、成人紙尿布、嬰兒紙尿布、衛生紙/棉",
        "notes": "列表為建議捐贈品，實際狀況請恰分店人員。",
        "maps_url": "https://maps.apple/p/tXGJnxepcPe11T"
      },
      {
        "name": "台北敦化北店（超市）",
        "address": "105 台北市松山區敦化北路199巷5號 ",
        "hours": "無",
        "phone": "02-7753-1345",
        "fax": "02-2716-7230",
        "coordinates": "25.0569746,121.5515386",
        "transportation": "無",
        "parking": "無",
        "accepted_items": "米、麵條、麥片、糖、鹽、料理包、泡麵、牙膏、牙刷、肥皂、毛巾、家用清潔劑、洗衣粉、沐浴乳、洗髮精、抹布、成人奶粉、嬰兒奶粉、罐頭、食用油、醬油調味料、成人紙尿布、嬰兒紙尿布、衛生紙/棉",
        "notes": "列表為建議捐贈品，實際狀況請恰分店人員。",
        "maps_url": "https://maps.apple/p/AuL~kGe.RfIV85"
      },
      {
        "name": "大安仁愛店（超市）",
        "address": "106 台北市大安區仁愛路四段151巷37號B1 ",
        "hours": "公車： 站牌 0東，33，41，52，204，212，212直，232，232副，232快，235，262，262區，275副，278，285，292，292副，299，605，605副，605台新五，630，662，663，902，902區，905，905副，906，906副，909，敦化幹線，忠孝幹線 「阿波羅大廈」站牌 204，212，212直，232，232副，232快，235，278，299，662，663，667，919，忠孝幹線 「國泰醫院」站牌 37，235，245；捷運：忠孝敦化站3號出口",
        "phone": "02-7744-7799",
        "fax": "無",
        "coordinates": "25.040546,121.5521101",
        "transportation": "公車： 站牌 0東，33，41，52，204，212，212直，232，232副，232快，235，262，262區，275副，278，285，292，292副，299，605，605副，605台新五，630，662，663，902，902區，905，905副，906，906副，909，敦化幹線，忠孝幹線 「阿波羅大廈」站牌 204，212，212直，232，232副，232快，235，278，299，662，663，667，919，忠孝幹線 「國泰醫院」站牌 37，235，245；捷運：忠孝敦化站3號出口",
        "parking": "無",
        "accepted_items": "米、麵條、麥片、糖、鹽、料理包、泡麵、牙膏、牙刷、肥皂、毛巾、家用清潔劑、洗衣粉、沐浴乳、洗髮精、抹布、成人奶粉、嬰兒奶粉、罐頭、食用油、醬油調味料、成人紙尿布、嬰兒紙尿布、衛生紙/棉",
        "notes": "列表為建議捐贈品，實際狀況請恰分店人員。",
        "maps_url": "https://maps.apple/p/TTFiDmzdTkVT0d"
      },
      {
        "name": "台北仁愛二店（超市）",
        "address": "106 台北市大安區仁愛路四段388號B1 ",
        "hours": "無",
        "phone": "02-7756-4050",
        "fax": "02-2705-2696",
        "coordinates": "25.0374348,121.5562808",
        "transportation": "無",
        "parking": "無",
        "accepted_items": "米、麵條、麥片、糖、鹽、料理包、泡麵、牙膏、牙刷、肥皂、毛巾、家用清潔劑、洗衣粉、沐浴乳、洗髮精、抹布、成人奶粉、嬰兒奶粉、罐頭、食用油、醬油調味料、成人紙尿布、嬰兒紙尿布、衛生紙/棉",
        "notes": "列表為建議捐贈品，實際狀況請恰分店人員。",
        "maps_url": "https://maps.apple/p/ihSthd.95XoqWG"
      },
      {
        "name": "台北仁愛店（超市）",
        "address": "106 台北市大安區仁愛路四段50-99,50-100號B1",
        "hours": "無",
        "phone": "02-7756-4170",
        "fax": "02-2754-8835",
        "coordinates": "25.0375723,121.547328",
        "transportation": "無",
        "parking": "無",
        "accepted_items": "米、麵條、麥片、糖、鹽、料理包、泡麵、牙膏、牙刷、肥皂、毛巾、家用清潔劑、洗衣粉、沐浴乳、洗髮精、抹布、成人奶粉、嬰兒奶粉、罐頭、食用油、醬油調味料、成人紙尿布、嬰兒紙尿布、衛生紙/棉",
        "notes": "列表為建議捐贈品，實際狀況請恰分店人員。",
        "maps_url": "https://maps.apple/p/1S-dv2X-bdzH6M"
      },
      {
        "name": "台北信義店（超市）",
        "address": "106 台北市大安區信義路四段296號B1",
        "hours": "無",
        "phone": "02-2754-5386~7",
        "fax": "02-2754-9668",
        "coordinates": "25.0328892,121.5544949",
        "transportation": "無",
        "parking": "無",
        "accepted_items": "米、麵條、麥片、糖、鹽、料理包、泡麵、牙膏、牙刷、肥皂、毛巾、家用清潔劑、洗衣粉、沐浴乳、洗髮精、抹布、成人奶粉、嬰兒奶粉、罐頭、食用油、醬油調味料、成人紙尿布、嬰兒紙尿布、衛生紙/棉",
        "notes": "列表為建議捐贈品，實際狀況請恰分店人員。",
        "maps_url": "https://maps.apple/p/iULPjbzPZvtPy7"
      },
      {
        "name": "大安和平東店（超市）",
        "address": "106 台北市大安區和平東路一段145號",
        "hours": "無",
        "phone": "02-2391-3765、02-2391-8062",
        "fax": "02-2391-3765",
        "coordinates": "25.0266229,121.530767",
        "transportation": "無",
        "parking": "無",
        "accepted_items": "米、麵條、麥片、糖、鹽、料理包、泡麵、牙膏、牙刷、肥皂、毛巾、家用清潔劑、洗衣粉、沐浴乳、洗髮精、抹布、成人奶粉、嬰兒奶粉、罐頭、食用油、醬油調味料、成人紙尿布、嬰兒紙尿布、衛生紙/棉",
        "notes": "列表為建議捐贈品，實際狀況請恰分店人員。",
        "maps_url": "https://maps.apple/p/Pp89Yyv6L_xgxn"
      },
      {
        "name": "台北四維店（超市）",
        "address": "106 台北市大安區四維路198巷35號",
        "hours": "無",
        "phone": "02-7756-4140",
        "fax": "02-2701-8718",
        "coordinates": "25.0273695,121.5457784",
        "transportation": "無",
        "parking": "無",
        "accepted_items": "米、麵條、麥片、糖、鹽、料理包、泡麵、牙膏、牙刷、肥皂、毛巾、家用清潔劑、洗衣粉、沐浴乳、洗髮精、抹布、成人奶粉、嬰兒奶粉、罐頭、食用油、醬油調味料、成人紙尿布、嬰兒紙尿布、衛生紙/棉",
        "notes": "列表為建議捐贈品，實際狀況請恰分店人員。",
        "maps_url": "https://maps.apple/p/vRrq1M3qN6.3wv"
      },
      {
        "name": "台北師大店（超市）",
        "address": "106 台北市大安區師大路129號1樓 ",
        "hours": "無",
        "phone": "02-2368-0031~2",
        "fax": "02-2365-0420",
        "coordinates": "25.0216865,121.5282631",
        "transportation": "無",
        "parking": "無",
        "accepted_items": "米、麵條、麥片、糖、鹽、料理包、泡麵、牙膏、牙刷、肥皂、毛巾、家用清潔劑、洗衣粉、沐浴乳、洗髮精、抹布、成人奶粉、嬰兒奶粉、罐頭、食用油、醬油調味料、成人紙尿布、嬰兒紙尿布、衛生紙/棉",
        "notes": "列表為建議捐贈品，實際狀況請恰分店人員。",
        "maps_url": "https://maps.apple/p/1Tj.yJEH_HCLZK"
      },
      {
        "name": "台北延吉店（超市）",
        "address": "106 台北市大安區延吉街250號B1",
        "hours": "無",
        "phone": "02-2704-8933",
        "fax": "02-2704-8934",
        "coordinates": "25.0348735,121.5560415",
        "transportation": "無",
        "parking": "無",
        "accepted_items": "米、麵條、麥片、糖、鹽、料理包、泡麵、牙膏、牙刷、肥皂、毛巾、家用清潔劑、洗衣粉、沐浴乳、洗髮精、抹布、成人奶粉、嬰兒奶粉、罐頭、食用油、醬油調味料、成人紙尿布、嬰兒紙尿布、衛生紙/棉",
        "notes": "列表為建議捐贈品，實際狀況請恰分店人員。",
        "maps_url": "https://maps.apple/p/THjtIoq9HZSzSM"
      },
      {
        "name": "台北忠孝東二店（超市）",
        "address": "106 台北市大安區忠孝東路三段218號B1",
        "hours": "無",
        "phone": "02-2777-1516、02-2777-1517",
        "fax": "02-2777-1519",
        "coordinates": "25.0413541,121.5402297",
        "transportation": "無",
        "parking": "無",
        "accepted_items": "米、麵條、麥片、糖、鹽、料理包、泡麵、牙膏、牙刷、肥皂、毛巾、家用清潔劑、洗衣粉、沐浴乳、洗髮精、抹布、成人奶粉、嬰兒奶粉、罐頭、食用油、醬油調味料、成人紙尿布、嬰兒紙尿布、衛生紙/棉",
        "notes": "列表為建議捐贈品，實際狀況請恰分店人員。",
        "maps_url": "https://maps.apple/p/4A-SaRhLZxqIaB"
      },
      {
        "name": "台北忠孝東店（超市）",
        "address": "106 台北市大安區忠孝東路四段71號B1 ",
        "hours": "無",
        "phone": "02-2781-1008、02-2778-1336",
        "fax": "02-2741-4895",
        "coordinates": "25.0418453,121.5468541",
        "transportation": "無",
        "parking": "無",
        "accepted_items": "米、麵條、麥片、糖、鹽、料理包、泡麵、牙膏、牙刷、肥皂、毛巾、家用清潔劑、洗衣粉、沐浴乳、洗髮精、抹布、成人奶粉、嬰兒奶粉、罐頭、食用油、醬油調味料、成人紙尿布、嬰兒紙尿布、衛生紙/棉",
        "notes": "列表為建議捐贈品，實際狀況請恰分店人員。",
        "maps_url": "https://maps.apple/p/w2kk_qKcw42Pni"
      },
      {
        "name": "大安敦化南店（超市）",
        "address": "106 台北市大安區敦化南路二段48號",
        "hours": "無",
        "phone": "02-7756-4150",
        "fax": "02-2701-0493",
        "coordinates": "25.0312116,121.5484087",
        "transportation": "無",
        "parking": "無",
        "accepted_items": "米、麵條、麥片、糖、鹽、料理包、泡麵、牙膏、牙刷、肥皂、毛巾、家用清潔劑、洗衣粉、沐浴乳、洗髮精、抹布、成人奶粉、嬰兒奶粉、罐頭、食用油、醬油調味料、成人紙尿布、嬰兒紙尿布、衛生紙/棉",
        "notes": "列表為建議捐贈品，實際狀況請恰分店人員。",
        "maps_url": "https://maps.apple/p/mxezJyXzrXz195"
      },
      {
        "name": "台北新生南店（超市）",
        "address": "106 台北市大安區新生南路三段2號B1",
        "hours": "無",
        "phone": "02-2368-6191、02-2368-6195",
        "fax": "02-2368-6206",
        "coordinates": "25.0257604,121.5346275",
        "transportation": "無",
        "parking": "無",
        "accepted_items": "米、麵條、麥片、糖、鹽、料理包、泡麵、牙膏、牙刷、肥皂、毛巾、家用清潔劑、洗衣粉、沐浴乳、洗髮精、抹布、成人奶粉、嬰兒奶粉、罐頭、食用油、醬油調味料、成人紙尿布、嬰兒紙尿布、衛生紙/棉",
        "notes": "列表為建議捐贈品，實際狀況請恰分店人員。",
        "maps_url": "https://maps.apple/p/ifmU9ayaXbx3qK"
      },
      {
        "name": "台北羅斯福店（超市）",
        "address": "106 台北市大安區羅斯福路三段285號B1",
        "hours": "無",
        "phone": "02-2363-1410",
        "fax": "02-2363-2050",
        "coordinates": "25.0178322,121.5314377",
        "transportation": "無",
        "parking": "無",
        "accepted_items": "米、麵條、麥片、糖、鹽、料理包、泡麵、牙膏、牙刷、肥皂、毛巾、家用清潔劑、洗衣粉、沐浴乳、洗髮精、抹布、成人奶粉、嬰兒奶粉、罐頭、食用油、醬油調味料、成人紙尿布、嬰兒紙尿布、衛生紙/棉",
        "notes": "列表為建議捐贈品，實際狀況請恰分店人員。",
        "maps_url": "https://maps.apple/p/UJM4ry0uZLb~JR"
      },
      {
        "name": "大安臨江店（超市）",
        "address": "106 台北市大安區臨江街87號B1",
        "hours": "公車：文昌街口站 235，662，663；捷運：信義安和3號出口 走路5分鐘",
        "phone": "02-2700-8368",
        "fax": "02-2700-8368#117",
        "coordinates": "25.0301001,121.5549895",
        "transportation": "公車：文昌街口站 235，662，663；捷運：信義安和3號出口 走路5分鐘",
        "parking": "無",
        "accepted_items": "米、麵條、麥片、糖、鹽、料理包、泡麵、牙膏、牙刷、肥皂、毛巾、家用清潔劑、洗衣粉、沐浴乳、洗髮精、抹布、成人奶粉、嬰兒奶粉、罐頭、食用油、醬油調味料、成人紙尿布、嬰兒紙尿布、衛生紙/棉",
        "notes": "列表為建議捐贈品，實際狀況請恰分店人員。",
        "maps_url": "https://maps.apple/p/m5~dvyVMh4Z8KV"
      },
      {
        "name": "萬華中華店（超市）",
        "address": "108 台北市萬華區中華路二段600號B1 ",
        "hours": "無",
        "phone": "02-77354898",
        "fax": "無",
        "coordinates": "25.02448,121.5099514",
        "transportation": "無",
        "parking": "無",
        "accepted_items": "米、麵條、麥片、糖、鹽、料理包、泡麵、牙膏、牙刷、肥皂、毛巾、家用清潔劑、洗衣粉、沐浴乳、洗髮精、抹布、成人奶粉、嬰兒奶粉、罐頭、食用油、醬油調味料、成人紙尿布、嬰兒紙尿布、衛生紙/棉",
        "notes": "列表為建議捐贈品，實際狀況請恰分店人員。",
        "maps_url": "https://maps.apple/p/M9q81r4o36jcVu"
      },
      {
        "name": "台北大理店（超市）",
        "address": "108 台北市萬華區大理街114號1樓",
        "hours": "無",
        "phone": "02-2304-2343、02-2304-2353",
        "fax": "02-2304-2356",
        "coordinates": "25.0341725,121.497521",
        "transportation": "無",
        "parking": "無",
        "accepted_items": "米、麵條、麥片、糖、鹽、料理包、泡麵、牙膏、牙刷、肥皂、毛巾、家用清潔劑、洗衣粉、沐浴乳、洗髮精、抹布、成人奶粉、嬰兒奶粉、罐頭、食用油、醬油調味料、成人紙尿布、嬰兒紙尿布、衛生紙/棉",
        "notes": "列表為建議捐贈品，實際狀況請恰分店人員。",
        "maps_url": "https://maps.apple/p/SwCneo2~_MwE9N"
      },
      {
        "name": "桂林店（量販）",
        "address": "108 台北市萬華區桂林路1號",
        "hours": "公車：昆明街派出所 步行約1-3分鐘、聯合醫院和平院區 步行約3-5分鐘、小南門(和平院區) 步行約3-5分鐘、捷運西門站 步行約5-10分鐘；捷運：西門站 步行約5-10分鐘、小南門站 步行約3-5分鐘",
        "phone": "02-2388-9887",
        "fax": "02-2361-4168",
        "coordinates": "25.0377423,121.506218",
        "transportation": "公車：昆明街派出所 步行約1-3分鐘、聯合醫院和平院區 步行約3-5分鐘、小南門(和平院區) 步行約3-5分鐘、捷運西門站 步行約5-10分鐘；捷運：西門站 步行約5-10分鐘、小南門站 步行約3-5分鐘",
        "parking": "汽車274位、機車190位、殘障6位。汽車60元/小時、機車10元/半小時。",
        "accepted_items": "米、麵條、麥片、糖、鹽、料理包、泡麵、牙膏、牙刷、肥皂、毛巾、家用清潔劑、洗衣粉、沐浴乳、洗髮精、抹布、成人奶粉、嬰兒奶粉、罐頭、食用油、醬油調味料、成人紙尿布、嬰兒紙尿布、衛生紙/棉、貓狗飼料和罐頭",
        "notes": "列表為建議捐贈品，實際狀況請恰分店人員。詳情：https://www.carrefour.com.tw/store-info/?store=桂林店#tab=info",
        "maps_url": "https://maps.apple/p/F1MsmTwIG_Cyt2"
      },
      {
        "name": "台北萬大店（超市）",
        "address": "108 台北市萬華區萬大路486巷48號1樓",
        "hours": "無",
        "phone": "02-2303-8018、02-2303-6980",
        "fax": "02-2303-3162",
        "coordinates": "25.0207345,121.4958477",
        "transportation": "無",
        "parking": "無",
        "accepted_items": "米、麵條、麥片、糖、鹽、料理包、泡麵、牙膏、牙刷、肥皂、毛巾、家用清潔劑、洗衣粉、沐浴乳、洗髮精、抹布、成人奶粉、嬰兒奶粉、罐頭、食用油、醬油調味料、成人紙尿布、嬰兒紙尿布、衛生紙/棉",
        "notes": "列表為建議捐贈品，實際狀況請恰分店人員。",
        "maps_url": "https://maps.apple/p/~KzTm6tQQyTVRq"
      },
      {
        "name": "台北西藏店（超市）",
        "address": "108 台北市萬華區西藏路125巷13-15號",
        "hours": "無",
        "phone": "02-2332-6726",
        "fax": "02-2301-3932",
        "coordinates": "25.0285376,121.5022975",
        "transportation": "無",
        "parking": "無",
        "accepted_items": "米、麵條、麥片、糖、鹽、料理包、泡麵、牙膏、牙刷、肥皂、毛巾、家用清潔劑、洗衣粉、沐浴乳、洗髮精、抹布、成人奶粉、嬰兒奶粉、罐頭、食用油、醬油調味料、成人紙尿布、嬰兒紙尿布、衛生紙/棉",
        "notes": "列表為建議捐贈品，實際狀況請恰分店人員。",
        "maps_url": "https://maps.apple/p/Yd0R5r2WnCVr~4"
      },
      {
        "name": "台北長沙店（超市）",
        "address": "108 台北市萬華區長沙街二段93號B1",
        "hours": "無",
        "phone": "02-2370-6201~2",
        "fax": "02-2370-6231",
        "coordinates": "25.0404828,121.5044695",
        "transportation": "無",
        "parking": "無",
        "accepted_items": "米、麵條、麥片、糖、鹽、料理包、泡麵、牙膏、牙刷、肥皂、毛巾、家用清潔劑、洗衣粉、沐浴乳、洗髮精、抹布、成人奶粉、嬰兒奶粉、罐頭、食用油、醬油調味料、成人紙尿布、嬰兒紙尿布、衛生紙/棉",
        "notes": "列表為建議捐贈品，實際狀況請恰分店人員。",
        "maps_url": "https://maps.apple/p/hAQUqF6McEcb7b"
      },
      {
        "name": "台北松仁店（超市）",
        "address": "110 台北市信義區松仁路271號B1",
        "hours": "無",
        "phone": "02-2720-7494",
        "fax": "02-2720-7457",
        "coordinates": "25.0249895,121.5694581",
        "transportation": "無",
        "parking": "無",
        "accepted_items": "米、麵條、麥片、糖、鹽、料理包、泡麵、牙膏、牙刷、肥皂、毛巾、家用清潔劑、洗衣粉、沐浴乳、洗髮精、抹布、成人奶粉、嬰兒奶粉、罐頭、食用油、醬油調味料、成人紙尿布、嬰兒紙尿布、衛生紙/棉",
        "notes": "列表為建議捐贈品，實際狀況請恰分店人員。",
        "maps_url": "https://maps.apple/p/PPr2ktwVMY6C_x"
      },
      {
        "name": "台北松德店（超市）",
        "address": "110 台北市信義區松德路99號B1",
        "hours": "無",
        "phone": "02-2346-3665",
        "fax": "02-2346-3671",
        "coordinates": "25.0379454,121.5758723",
        "transportation": "無",
        "parking": "無",
        "accepted_items": "米、麵條、麥片、糖、鹽、料理包、泡麵、牙膏、牙刷、肥皂、毛巾、家用清潔劑、洗衣粉、沐浴乳、洗髮精、抹布、成人奶粉、嬰兒奶粉、罐頭、食用油、醬油調味料、成人紙尿布、嬰兒紙尿布、衛生紙/棉",
        "notes": "列表為建議捐贈品，實際狀況請恰分店人員。",
        "maps_url": "https://maps.apple/p/DJkf9kvQIU-5Tb"
      },
      {
        "name": "天母中北店（超市）",
        "address": "111 台北市士林區中山北路七段113號 ",
        "hours": "公車：天母新村站 紅19，220，224，267 606，616，680，685",
        "phone": "02-2871-2126",
        "fax": "02-2871-2136",
        "coordinates": "25.122332,121.5317158",
        "transportation": "公車：天母新村站 紅19，220，224，267 606，616，680，685",
        "parking": "汽車35位、機車15位。滿300元免費停車1小時。",
        "accepted_items": "米、麵條、麥片、糖、鹽、料理包、泡麵、牙膏、牙刷、肥皂、毛巾、家用清潔劑、洗衣粉、沐浴乳、洗髮精、抹布、成人奶粉、嬰兒奶粉、罐頭、食用油、醬油調味料、成人紙尿布、嬰兒紙尿布、衛生紙/棉",
        "notes": "列表為建議捐贈品，實際狀況請恰分店人員。",
        "maps_url": "https://maps.apple/p/GnKnx_orKmYwnr"
      },
      {
        "name": "士林華聲店（超市）",
        "address": "111 台北市士林區華聲街17號1樓",
        "hours": "公車：士林國中站 508，508區，815，816，683，616，111；捷運：士林站1號出口 往前行10分鐘後向左轉3分鐘即可抵達",
        "phone": "02-2704-7108",
        "fax": "02-2831-6457",
        "coordinates": "25.096591,121.5225683",
        "transportation": "公車：士林國中站 508，508區，815，816，683，616，111；捷運：士林站1號出口 往前行10分鐘後向左轉3分鐘即可抵達",
        "parking": "汽車114位、殘障5位。",
        "accepted_items": "米、麵條、麥片、糖、鹽、料理包、泡麵、牙膏、牙刷、肥皂、毛巾、家用清潔劑、洗衣粉、沐浴乳、洗髮精、抹布、成人奶粉、嬰兒奶粉、罐頭、食用油、醬油調味料、成人紙尿布、嬰兒紙尿布、衛生紙/棉",
        "notes": "列表為建議捐贈品，實際狀況請恰分店人員。",
        "maps_url": "https://maps.apple/p/5P~T9PaqY.ctmp"
      },
      {
        "name": "士林德行東店（超市）",
        "address": "111 台北市士林區德行東路230號",
        "hours": "無",
        "phone": "02-2836-6280~1",
        "fax": "02-8866-4161",
        "coordinates": "25.1093379,121.5332628",
        "transportation": "無",
        "parking": "汽車21位。月租4500元。",
        "accepted_items": "米、麵條、麥片、糖、鹽、料理包、泡麵、牙膏、牙刷、肥皂、毛巾、家用清潔劑、洗衣粉、沐浴乳、洗髮精、抹布、成人奶粉、嬰兒奶粉、罐頭、食用油、醬油調味料、成人紙尿布、嬰兒紙尿布、衛生紙/棉",
        "notes": "列表為建議捐贈品，實際狀況請恰分店人員。",
        "maps_url": "https://maps.apple/p/XPrDMK.1P-GrrV"
      },
      {
        "name": "天母店（量販）",
        "address": "111 台北市士林區德行西路47號 ",
        "hours": "公車：德行西路站 216副，280，616；捷運：捷運芝山站2號出口 步行約3分鐘",
        "phone": "02-2833-8042",
        "fax": "02-2836-0846",
        "coordinates": "25.1052888,121.5225138",
        "transportation": "公車：德行西路站 216副，280，616；捷運：捷運芝山站2號出口 步行約3分鐘",
        "parking": "汽車106位、機車80位、殘障2位、親子2位。",
        "accepted_items": "米、麵條、麥片、糖、鹽、料理包、泡麵、牙膏、牙刷、肥皂、毛巾、家用清潔劑、洗衣粉、沐浴乳、洗髮精、抹布、成人奶粉、嬰兒奶粉、罐頭、食用油、醬油調味料、成人紙尿布、嬰兒紙尿布、衛生紙/棉、貓狗飼料和罐頭",
        "notes": "列表為建議捐贈品，實際狀況請恰分店人員。詳情：https://www.carrefour.com.tw/store-info/?store=天母店#tab=info",
        "maps_url": "https://maps.apple/p/Qfj-63i6QdzhcE"
      },
      {
        "name": "士林忠誠店（超市）",
        "address": "111 台北市士林區忠誠路二段188號",
        "hours": "捷運+公車：到芝山捷運站 搭616，203，606到 啟智學校",
        "phone": "02-2875-5015",
        "fax": "02-2875-5016",
        "coordinates": "25.116458,121.5337283",
        "transportation": "捷運+公車：到芝山捷運站 搭616，203，606到 啟智學校",
        "parking": "無",
        "accepted_items": "米、麵條、麥片、糖、鹽、料理包、泡麵、牙膏、牙刷、肥皂、毛巾、家用清潔劑、洗衣粉、沐浴乳、洗髮精、抹布、成人奶粉、嬰兒奶粉、罐頭、食用油、醬油調味料、成人紙尿布、嬰兒紙尿布、衛生紙/棉",
        "notes": "列表為建議捐贈品，實際狀況請恰分店人員。",
        "maps_url": "https://maps.apple/p/2uSM.hEKCcrVUa"
      },
      {
        "name": "士林格致店（超市）",
        "address": "111 台北市士林區格致路7號",
        "hours": "無",
        "phone": "02-2862-4435",
        "fax": "02-2862-4437",
        "coordinates": "25.1363406,121.5461019",
        "transportation": "無",
        "parking": "無",
        "accepted_items": "米、麵條、麥片、糖、鹽、料理包、泡麵、牙膏、牙刷、肥皂、毛巾、家用清潔劑、洗衣粉、沐浴乳、洗髮精、抹布、成人奶粉、嬰兒奶粉、罐頭、食用油、醬油調味料、成人紙尿布、嬰兒紙尿布、衛生紙/棉",
        "notes": "列表為建議捐贈品，實際狀況請恰分店人員。",
        "maps_url": "https://maps.apple/p/BjVUUtkTfPfsAw"
      },
      {
        "name": "士林社中店（超市）",
        "address": "111 台北市士林區社中街222號1樓",
        "hours": "無",
        "phone": "02-8811-2281、02-8811-1567",
        "fax": "02-8811-3908",
        "coordinates": "25.0912967,121.508329",
        "transportation": "無",
        "parking": "無",
        "accepted_items": "米、麵條、麥片、糖、鹽、料理包、泡麵、牙膏、牙刷、肥皂、毛巾、家用清潔劑、洗衣粉、沐浴乳、洗髮精、抹布、成人奶粉、嬰兒奶粉、罐頭、食用油、醬油調味料、成人紙尿布、嬰兒紙尿布、衛生紙/棉",
        "notes": "列表為建議捐贈品，實際狀況請恰分店人員。",
        "maps_url": "https://maps.apple/p/8G03rKr98XtU51"
      },
      {
        "name": "士林華齡店（超市）",
        "address": "111 台北市士林區華齡街175號 ",
        "hours": "無",
        "phone": "02-2882-4585~6",
        "fax": "02-2882-2866",
        "coordinates": "25.087105,121.5192329",
        "transportation": "無",
        "parking": "汽車20位。40元/小時，最高240元。",
        "accepted_items": "米、麵條、麥片、糖、鹽、料理包、泡麵、牙膏、牙刷、肥皂、毛巾、家用清潔劑、洗衣粉、沐浴乳、洗髮精、抹布、成人奶粉、嬰兒奶粉、罐頭、食用油、醬油調味料、成人紙尿布、嬰兒紙尿布、衛生紙/棉",
        "notes": "列表為建議捐贈品，實際狀況請恰分店人員。",
        "maps_url": "https://maps.apple/p/JngRHPrzbWJ09B"
      },
      {
        "name": "士林雨聲店（超市）",
        "address": "111 台北市士林區雨聲街52號、52-1號、52巷1號",
        "hours": "無",
        "phone": "02-2838-1772、02-2838-0751",
        "fax": "02-2838-3401",
        "coordinates": "25.1027762,121.5288673",
        "transportation": "無",
        "parking": "無",
        "accepted_items": "米、麵條、麥片、糖、鹽、料理包、泡麵、牙膏、牙刷、肥皂、毛巾、家用清潔劑、洗衣粉、沐浴乳、洗髮精、抹布、成人奶粉、嬰兒奶粉、罐頭、食用油、醬油調味料、成人紙尿布、嬰兒紙尿布、衛生紙/棉",
        "notes": "列表為建議捐贈品，實際狀況請恰分店人員。",
        "maps_url": "https://maps.apple/p/V4cwgj~SR.T5X~"
      },
      {
        "name": "北投光明店（超市）",
        "address": "112 台北市北投區光明路220號1F ",
        "hours": "無",
        "phone": "02-2896-8712~3",
        "fax": "02-2898-2474",
        "coordinates": "25.1362319,121.5045557",
        "transportation": "無",
        "parking": "無",
        "accepted_items": "米、麵條、麥片、糖、鹽、料理包、泡麵、牙膏、牙刷、肥皂、毛巾、家用清潔劑、洗衣粉、沐浴乳、洗髮精、抹布、成人奶粉、嬰兒奶粉、罐頭、食用油、醬油調味料、成人紙尿布、嬰兒紙尿布、衛生紙/棉",
        "notes": "列表為建議捐贈品，實際狀況請恰分店人員。",
        "maps_url": "https://maps.apple/p/7RKpDKv0de6eYe"
      },
      {
        "name": "北投公館店（超市）",
        "address": "112 台北市北投區公館路198號",
        "hours": "無",
        "phone": "02-2893-1276",
        "fax": "02-2893-1275",
        "coordinates": "25.1276262,121.5072083",
        "transportation": "無",
        "parking": "汽車60位。40元/小時。",
        "accepted_items": "米、麵條、麥片、糖、鹽、料理包、泡麵、牙膏、牙刷、肥皂、毛巾、家用清潔劑、洗衣粉、沐浴乳、洗髮精、抹布、成人奶粉、嬰兒奶粉、罐頭、食用油、醬油調味料、成人紙尿布、嬰兒紙尿布、衛生紙/棉",
        "notes": "列表為建議捐贈品，實際狀況請恰分店人員。",
        "maps_url": "https://maps.apple/p/E3.Nejcne2mh_~"
      },
      {
        "name": "北投明德店（超市）",
        "address": "112 台北市北投區明德路161號B1樓",
        "hours": "公車：奎山國中站 216，223，267，1801；捷運：明德站",
        "phone": "02-2827-8227",
        "fax": "02-2827-8225",
        "coordinates": "25.111438,121.5209816",
        "transportation": "公車：奎山國中站 216，223，267，1801；捷運：明德站",
        "parking": "無",
        "accepted_items": "米、麵條、麥片、糖、鹽、料理包、泡麵、牙膏、牙刷、肥皂、毛巾、家用清潔劑、洗衣粉、沐浴乳、洗髮精、抹布、成人奶粉、嬰兒奶粉、罐頭、食用油、醬油調味料、成人紙尿布、嬰兒紙尿布、衛生紙/棉",
        "notes": "列表為建議捐贈品，實際狀況請恰分店人員。",
        "maps_url": "https://maps.apple/p/s-95LDTJ66bvBX"
      },
      {
        "name": "北投致遠一店（超市）",
        "address": "112 台北市北投區致遠一路二段19號、21號、23號",
        "hours": "無",
        "phone": "02-2827-4150、02-2827-4159",
        "fax": "02-2827-4142",
        "coordinates": "25.1111399,121.5142149",
        "transportation": "無",
        "parking": "無",
        "accepted_items": "米、麵條、麥片、糖、鹽、料理包、泡麵、牙膏、牙刷、肥皂、毛巾、家用清潔劑、洗衣粉、沐浴乳、洗髮精、抹布、成人奶粉、嬰兒奶粉、罐頭、食用油、醬油調味料、成人紙尿布、嬰兒紙尿布、衛生紙/棉",
        "notes": "列表為建議捐贈品，實際狀況請恰分店人員。",
        "maps_url": "https://maps.apple/p/nK5G0CsXN5v8kj"
      },
      {
        "name": "台北內湖1店（超市）",
        "address": "114 台北市內湖區內湖路一段155號",
        "hours": "公車：治磐新村站 28，222，247，247區，256，267，268，286副，287區，553，556，620，646區，681，藍20區，藍26，內湖幹線，紅2；捷運：西湖站",
        "phone": "02-2658-5955",
        "fax": "02-2658-5975",
        "coordinates": "25.0836243,121.5632407",
        "transportation": "公車：治磐新村站 28，222，247，247區，256，267，268，286副，287區，553，556，620，646區，681，藍20區，藍26，內湖幹線，紅2；捷運：西湖站",
        "parking": "無",
        "accepted_items": "米、麵條、麥片、糖、鹽、料理包、泡麵、牙膏、牙刷、肥皂、毛巾、家用清潔劑、洗衣粉、沐浴乳、洗髮精、抹布、成人奶粉、嬰兒奶粉、罐頭、食用油、醬油調味料、成人紙尿布、嬰兒紙尿布、衛生紙/棉",
        "notes": "列表為建議捐贈品，實際狀況請恰分店人員。",
        "maps_url": "https://maps.apple/p/efhXStjPEDG17X"
      },
      {
        "name": "內湖康樂店（超市）",
        "address": "114 台北市內湖區康樂街150號",
        "hours": "無",
        "phone": "02-2633-8537、02-2633-8437",
        "fax": "02-2633-8501",
        "coordinates": "25.07244,121.61917568",
        "transportation": "無",
        "parking": "無",
        "accepted_items": "米、麵條、麥片、糖、鹽、料理包、泡麵、牙膏、牙刷、肥皂、毛巾、家用清潔劑、洗衣粉、沐浴乳、洗髮精、抹布、成人奶粉、嬰兒奶粉、罐頭、食用油、醬油調味料、成人紙尿布、嬰兒紙尿布、衛生紙/棉",
        "notes": "列表為建議捐贈品，實際狀況請恰分店人員。",
        "maps_url": "https://maps.apple/p/8PNE93AiEp8PRv"
      },
      {
        "name": "內湖成功店（超市）",
        "address": "114 台北市內湖區成功路三段174巷8號B1",
        "hours": "公車：內湖派出所一站 278，552，小3、成功路三段 28，222，240直，256，284，287區，521，551",
        "phone": "02-2793-1215",
        "fax": "02-2793-1209",
        "coordinates": "25.0809243,121.5905674",
        "transportation": "公車：內湖派出所一站 278，552，小3、成功路三段 28，222，240直，256，284，287區，521，551",
        "parking": "機車18位。免費停車。",
        "accepted_items": "米、麵條、麥片、糖、鹽、料理包、泡麵、牙膏、牙刷、肥皂、毛巾、家用清潔劑、洗衣粉、沐浴乳、洗髮精、抹布、成人奶粉、嬰兒奶粉、罐頭、食用油、醬油調味料、成人紙尿布、嬰兒紙尿布、衛生紙/棉",
        "notes": "列表為建議捐贈品，實際狀況請恰分店人員。",
        "maps_url": "https://maps.apple/p/QfD61QktNEVqHI"
      },
      {
        "name": "內湖成功二店（超市）",
        "address": "114 台北市內湖區成功路二段320巷19號",
        "hours": "無",
        "phone": "02-2796-0902~3",
        "fax": "02-2794-3667",
        "coordinates": "25.0676802,121.5900517",
        "transportation": "無",
        "parking": "無",
        "accepted_items": "米、麵條、麥片、糖、鹽、料理包、泡麵、牙膏、牙刷、肥皂、毛巾、家用清潔劑、洗衣粉、沐浴乳、洗髮精、抹布、成人奶粉、嬰兒奶粉、罐頭、食用油、醬油調味料、成人紙尿布、嬰兒紙尿布、衛生紙/棉",
        "notes": "列表為建議捐贈品，實際狀況請恰分店人員。",
        "maps_url": "https://maps.apple/p/9tUmg8zPZFiNWQ"
      },
      {
        "name": "台北東湖店（超市）",
        "address": "114 台北市內湖區東湖路69號B1",
        "hours": "公車：五分社區站 53，203，281，284，287，630，藍36，紅2，203，629，藍51，小1，棕19；捷運：東湖站",
        "phone": "02-2632-0558",
        "fax": "02-2632-0575",
        "coordinates": "25.06876,121.6149284",
        "transportation": "公車：五分社區站 53，203，281，284，287，630，藍36，紅2，203，629，藍51，小1，棕19；捷運：東湖站",
        "parking": "無",
        "accepted_items": "米、麵條、麥片、糖、鹽、料理包、泡麵、牙膏、牙刷、肥皂、毛巾、家用清潔劑、洗衣粉、沐浴乳、洗髮精、抹布、成人奶粉、嬰兒奶粉、罐頭、食用油、醬油調味料、成人紙尿布、嬰兒紙尿布、衛生紙/棉",
        "notes": "列表為建議捐贈品，實際狀況請恰分店人員。",
        "maps_url": "https://maps.apple/p/~ujGzZiFbcQoxT"
      },
      {
        "name": "內湖店（量販）",
        "address": "114 台北市內湖區民善街88號(民權大橋旁)",
        "hours": "公車：新湖民善街口站 民生幹線， 204， 藍7，藍50、新湖二路民善街口站 藍7副",
        "phone": "02-8790-5000",
        "fax": "02-8792-1212",
        "coordinates": "25.060267,121.5753833",
        "transportation": "公車：新湖民善街口站 民生幹線， 204， 藍7，藍50、新湖二路民善街口站 藍7副",
        "parking": "汽車596位、機車224位、殘障7位、親子8位。",
        "accepted_items": "米、麵條、麥片、糖、鹽、料理包、泡麵、牙膏、牙刷、肥皂、毛巾、家用清潔劑、洗衣粉、沐浴乳、洗髮精、抹布、成人奶粉、嬰兒奶粉、罐頭、食用油、醬油調味料、成人紙尿布、嬰兒紙尿布、衛生紙/棉、貓狗飼料和罐頭",
        "notes": "列表為建議捐贈品，實際狀況請恰分店人員。詳情：https://www.carrefour.com.tw/store-info/?store=內湖店#tab=info",
        "maps_url": "https://maps.apple/p/my6ICRDVYSTzfH"
      },
      {
        "name": "內湖民權東店（超市）",
        "address": "114 台北市內湖區民權東路六段296巷42-3號地下樓",
        "hours": "無",
        "phone": "02-2634-1240、02-2634-8246",
        "fax": "02-2634-8442",
        "coordinates": "25.0714887,121.6074501",
        "transportation": "無",
        "parking": "無",
        "accepted_items": "米、麵條、麥片、糖、鹽、料理包、泡麵、牙膏、牙刷、肥皂、毛巾、家用清潔劑、洗衣粉、沐浴乳、洗髮精、抹布、成人奶粉、嬰兒奶粉、罐頭、食用油、醬油調味料、成人紙尿布、嬰兒紙尿布、衛生紙/棉",
        "notes": "列表為建議捐贈品，實際狀況請恰分店人員。",
        "maps_url": "https://maps.apple/p/RpaNEpL5V0Gx28"
      },
      {
        "name": "內湖江南店（超市）",
        "address": "114 台北市內湖區江南街55號",
        "hours": "公車：內湖幹線 西湖圖書館(湖光教會)站  0東，21，28，222，247，267，278，286，287，552，620，652，677，681，683，小2，紅2，紅3，藍20，214；捷運：港乾站",
        "phone": "02-2656-1165",
        "fax": "02-2656-1125",
        "coordinates": "25.0774323,121.5779047",
        "transportation": "公車：內湖幹線 西湖圖書館(湖光教會)站  0東，21，28，222，247，267，278，286，287，552，620，652，677，681，683，小2，紅2，紅3，藍20，214；捷運：港乾站",
        "parking": "汽車60位。凱旋地下停車場 60元/小時。",
        "accepted_items": "米、麵條、麥片、糖、鹽、料理包、泡麵、牙膏、牙刷、肥皂、毛巾、家用清潔劑、洗衣粉、沐浴乳、洗髮精、抹布、成人奶粉、嬰兒奶粉、罐頭、食用油、醬油調味料、成人紙尿布、嬰兒紙尿布、衛生紙/棉",
        "notes": "列表為建議捐贈品，實際狀況請恰分店人員。",
        "maps_url": "https://maps.apple/p/Q834Pu_b9zkjP4"
      },
      {
        "name": "台北中坡南店（超市）",
        "address": "115 台北市南港區中坡南路3號",
        "hours": "無",
        "phone": "02-2785-4579、02-2785-4725",
        "fax": "02-2783-8705",
        "coordinates": "25.0440494,121.582231",
        "transportation": "無",
        "parking": "無",
        "accepted_items": "米、麵條、麥片、糖、鹽、料理包、泡麵、牙膏、牙刷、肥皂、毛巾、家用清潔劑、洗衣粉、沐浴乳、洗髮精、抹布、成人奶粉、嬰兒奶粉、罐頭、食用油、醬油調味料、成人紙尿布、嬰兒紙尿布、衛生紙/棉",
        "notes": "列表為建議捐贈品，實際狀況請恰分店人員。",
        "maps_url": "https://maps.apple/p/8YMv2is54Lys8C"
      },
      {
        "name": "南港店（量販）",
        "address": "115 台北市南港區南港路二段146號B2",
        "hours": "無",
        "phone": "02-2653-0598",
        "fax": "無",
        "coordinates": "25.0538439,121.6005052",
        "transportation": "無",
        "parking": "汽車65位、機車50位。",
        "accepted_items": "米、麵條、麥片、糖、鹽、料理包、泡麵、牙膏、牙刷、肥皂、毛巾、家用清潔劑、洗衣粉、沐浴乳、洗髮精、抹布、成人奶粉、嬰兒奶粉、罐頭、食用油、醬油調味料、成人紙尿布、嬰兒紙尿布、衛生紙/棉、貓狗飼料和罐頭",
        "notes": "列表為建議捐贈品，實際狀況請恰分店人員。詳情：https://www.carrefour.com.tw/store-info/?store=南港店#tab=info",
        "maps_url": "https://maps.apple/p/ZTtp~HXQ4wg3Pm"
      },
      {
        "name": "南港成福店（超市）",
        "address": "115 台北市南港區成福路183號",
        "hours": "無",
        "phone": "02-2788-4756、02-2788-6030",
        "fax": "02-2788-4747",
        "coordinates": "25.0408944,121.5886182",
        "transportation": "無",
        "parking": "無",
        "accepted_items": "米、麵條、麥片、糖、鹽、料理包、泡麵、牙膏、牙刷、肥皂、毛巾、家用清潔劑、洗衣粉、沐浴乳、洗髮精、抹布、成人奶粉、嬰兒奶粉、罐頭、食用油、醬油調味料、成人紙尿布、嬰兒紙尿布、衛生紙/棉",
        "notes": "列表為建議捐贈品，實際狀況請恰分店人員。",
        "maps_url": "https://maps.apple/p/2jbsj-sXLrmo-T"
      },
      {
        "name": "南港東明店（超市）",
        "address": "115 台北市南港區東明街99號1樓",
        "hours": "無",
        "phone": "02-2785-6170、02-2785-5972",
        "fax": "02-2785-7418",
        "coordinates": "25.0546449,121.600898",
        "transportation": "無",
        "parking": "無",
        "accepted_items": "米、麵條、麥片、糖、鹽、料理包、泡麵、牙膏、牙刷、肥皂、毛巾、家用清潔劑、洗衣粉、沐浴乳、洗髮精、抹布、成人奶粉、嬰兒奶粉、罐頭、食用油、醬油調味料、成人紙尿布、嬰兒紙尿布、衛生紙/棉",
        "notes": "列表為建議捐贈品，實際狀況請恰分店人員。",
        "maps_url": "https://maps.apple/p/7kdwAsNTFdYk8n"
      },
      {
        "name": "南港舊莊店（超市）",
        "address": "115 台北市南港區舊莊街一段196號",
        "hours": "無",
        "phone": "02-2651-2639",
        "fax": "02-2651-2650",
        "coordinates": "25.0386937,121.6220534",
        "transportation": "無",
        "parking": "無",
        "accepted_items": "米、麵條、麥片、糖、鹽、料理包、泡麵、牙膏、牙刷、肥皂、毛巾、家用清潔劑、洗衣粉、沐浴乳、洗髮精、抹布、成人奶粉、嬰兒奶粉、罐頭、食用油、醬油調味料、成人紙尿布、嬰兒紙尿布、衛生紙/棉",
        "notes": "列表為建議捐贈品，實際狀況請恰分店人員。",
        "maps_url": "https://maps.apple/p/.49hAtA443HDie"
      },
      {
        "name": "文山景隆店（超市）",
        "address": "116 台北市文山區景隆街36巷2號",
        "hours": "無",
        "phone": "02-2935-3394、02-2935-4421",
        "fax": "02-2935-4424",
        "coordinates": "24.9986341,121.5434884",
        "transportation": "無",
        "parking": "無",
        "accepted_items": "米、麵條、麥片、糖、鹽、料理包、泡麵、牙膏、牙刷、肥皂、毛巾、家用清潔劑、洗衣粉、沐浴乳、洗髮精、抹布、成人奶粉、嬰兒奶粉、罐頭、食用油、醬油調味料、成人紙尿布、嬰兒紙尿布、衛生紙/棉",
        "notes": "列表為建議捐贈品，實際狀況請恰分店人員。",
        "maps_url": "https://maps.apple/p/e6avFY5CSvp9ED"
      },
      {
        "name": "文山木新店（超市）",
        "address": "116 台北市文山區木新路二段158-1號",
        "hours": "無",
        "phone": "02-2936-2263、02-2936-2220",
        "fax": "02-2936-2273",
        "coordinates": "24.9841449,121.5688765",
        "transportation": "無",
        "parking": "無",
        "accepted_items": "米、麵條、麥片、糖、鹽、料理包、泡麵、牙膏、牙刷、肥皂、毛巾、家用清潔劑、洗衣粉、沐浴乳、洗髮精、抹布、成人奶粉、嬰兒奶粉、罐頭、食用油、醬油調味料、成人紙尿布、嬰兒紙尿布、衛生紙/棉",
        "notes": "列表為建議捐贈品，實際狀況請恰分店人員。",
        "maps_url": "https://maps.apple/p/sW8T4NGmjtG~fP"
      },
      {
        "name": "台北木柵店（超市）",
        "address": "116 台北市文山區木柵路四段153號",
        "hours": "無",
        "phone": "02-2239-6401、02-2239-6404",
        "fax": "02-2239-6397",
        "coordinates": "24.9990865,121.5750761",
        "transportation": "無",
        "parking": "無",
        "accepted_items": "米、麵條、麥片、糖、鹽、料理包、泡麵、牙膏、牙刷、肥皂、毛巾、家用清潔劑、洗衣粉、沐浴乳、洗髮精、抹布、成人奶粉、嬰兒奶粉、罐頭、食用油、醬油調味料、成人紙尿布、嬰兒紙尿布、衛生紙/棉",
        "notes": "列表為建議捐贈品，實際狀況請恰分店人員。",
        "maps_url": "https://maps.apple/p/uWq2NN1JV0HLoT"
      },
      {
        "name": "文山萬慶店（超市）",
        "address": "116 台北市文山區萬慶街27號",
        "hours": "無",
        "phone": "02-2935-2362、02-2935-2367",
        "fax": "02-2933-8451",
        "coordinates": "24.9923282,121.5392937",
        "transportation": "無",
        "parking": "無",
        "accepted_items": "米、麵條、麥片、糖、鹽、料理包、泡麵、牙膏、牙刷、肥皂、毛巾、家用清潔劑、洗衣粉、沐浴乳、洗髮精、抹布、成人奶粉、嬰兒奶粉、罐頭、食用油、醬油調味料、成人紙尿布、嬰兒紙尿布、衛生紙/棉",
        "notes": "列表為建議捐贈品，實際狀況請恰分店人員。",
        "maps_url": "https://maps.apple/p/VG9RIZ9__urxKb"
      },
      {
        "name": "基隆孝二店（超市）",
        "address": "200 基隆市仁愛區孝二路86號B1",
        "hours": "無",
        "phone": "02-2422-1270",
        "fax": "02-2422-1688",
        "coordinates": "25.1301529,121.7405974",
        "transportation": "無",
        "parking": "無",
        "accepted_items": "米、麵條、麥片、糖、鹽、料理包、泡麵、牙膏、牙刷、肥皂、毛巾、家用清潔劑、洗衣粉、沐浴乳、洗髮精、抹布、成人奶粉、嬰兒奶粉、罐頭、食用油、醬油調味料、成人紙尿布、嬰兒紙尿布、衛生紙/棉",
        "notes": "列表為建議捐贈品，實際狀況請恰分店人員。",
        "maps_url": "https://maps.apple/p/4ZYk6wxGHQxx9W"
      },
      {
        "name": "基隆深溪店（超市）",
        "address": "201 基隆市信義區深溪路63號、65號",
        "hours": "無",
        "phone": "02-2465-4548、02-7741-3210",
        "fax": "02-2465-4517",
        "coordinates": "25.1329109,121.7821625",
        "transportation": "無",
        "parking": "無",
        "accepted_items": "米、麵條、麥片、糖、鹽、料理包、泡麵、牙膏、牙刷、肥皂、毛巾、家用清潔劑、洗衣粉、沐浴乳、洗髮精、抹布、成人奶粉、嬰兒奶粉、罐頭、食用油、醬油調味料、成人紙尿布、嬰兒紙尿布、衛生紙/棉",
        "notes": "列表為建議捐贈品，實際狀況請恰分店人員。",
        "maps_url": "https://maps.apple/p/SoCQtbBLT8Irq7"
      },
      {
        "name": "基隆安樂店（超市）",
        "address": "204 基隆市安樂區安樂路二段164號B1",
        "hours": "無",
        "phone": "02-2432-4051~3",
        "fax": "02-2432-4055",
        "coordinates": "25.1209181,121.7231058",
        "transportation": "無",
        "parking": "無",
        "accepted_items": "米、麵條、麥片、糖、鹽、料理包、泡麵、牙膏、牙刷、肥皂、毛巾、家用清潔劑、洗衣粉、沐浴乳、洗髮精、抹布、成人奶粉、嬰兒奶粉、罐頭、食用油、醬油調味料、成人紙尿布、嬰兒紙尿布、衛生紙/棉",
        "notes": "列表為建議捐贈品，實際狀況請恰分店人員。",
        "maps_url": "https://maps.apple/p/_Vidq.Jd-NSsD1"
      },
      {
        "name": "七堵崇信店（超市）",
        "address": "206 基隆市七堵區崇信街16號",
        "hours": "無",
        "phone": "02-2456-8106~7",
        "fax": "02-2456-8107",
        "coordinates": "25.0989804,121.7127111",
        "transportation": "無",
        "parking": "無",
        "accepted_items": "米、麵條、麥片、糖、鹽、料理包、泡麵、牙膏、牙刷、肥皂、毛巾、家用清潔劑、洗衣粉、沐浴乳、洗髮精、抹布、成人奶粉、嬰兒奶粉、罐頭、食用油、醬油調味料、成人紙尿布、嬰兒紙尿布、衛生紙/棉",
        "notes": "列表為建議捐贈品，實際狀況請恰分店人員。",
        "maps_url": "https://maps.apple/p/zm1dPRwHyEqrkH"
      },
      {
        "name": "板橋店（量販）",
        "address": "220 新北市板橋區三民路二段31號B1",
        "hours": "公車：埔墘站 231，234，265，705，台北客運1073，捷運接駁(藍)31",
        "phone": "02-2964-2988",
        "fax": "02-2964-1480",
        "coordinates": "25.0178102,121.479412",
        "transportation": "公車：埔墘站 231，234，265，705，台北客運1073，捷運接駁(藍)31",
        "parking": "汽車192位、機車280位、殘障2位、親子2位。",
        "accepted_items": "米、麵條、麥片、糖、鹽、料理包、泡麵、牙膏、牙刷、肥皂、毛巾、家用清潔劑、洗衣粉、沐浴乳、洗髮精、抹布、成人奶粉、嬰兒奶粉、罐頭、食用油、醬油調味料、成人紙尿布、嬰兒紙尿布、衛生紙/棉、貓狗飼料和罐頭",
        "notes": "列表為建議捐贈品，實際狀況請恰分店人員。詳情：https://www.carrefour.com.tw/store-info/?store=板橋店#tab=info",
        "maps_url": "https://maps.apple/p/3ACUjYr1L9zGz1"
      },
      {
        "name": "板橋中正店（超市）",
        "address": "220 新北市板橋區中正路302號",
        "hours": "公車：社后站 中正路 新生街口 307，310，786，810，857",
        "phone": "02-2960-5886",
        "fax": "02-2960-5885",
        "coordinates": "25.0207238,121.4548693",
        "transportation": "公車：社后站 中正路 新生街口 307，310，786，810，857",
        "parking": "汽車1位，機車28位。汽車收費、機車免費。",
        "accepted_items": "米、麵條、麥片、糖、鹽、料理包、泡麵、牙膏、牙刷、肥皂、毛巾、家用清潔劑、洗衣粉、沐浴乳、洗髮精、抹布、成人奶粉、嬰兒奶粉、罐頭、食用油、醬油調味料、成人紙尿布、嬰兒紙尿布、衛生紙/棉",
        "notes": "列表為建議捐贈品，實際狀況請恰分店人員。",
        "maps_url": "https://maps.apple/p/W~WP80s-Ejwrhf"
      },
      {
        "name": "板橋四維店（超市）",
        "address": "220 新北市板橋區四維路247、249、251、253號",
        "hours": "無",
        "phone": "02-2257-7098、02-2257-6530",
        "fax": "02-2257-4136",
        "coordinates": "25.0276297,121.4636122",
        "transportation": "無",
        "parking": "無",
        "accepted_items": "米、麵條、麥片、糖、鹽、料理包、泡麵、牙膏、牙刷、肥皂、毛巾、家用清潔劑、洗衣粉、沐浴乳、洗髮精、抹布、成人奶粉、嬰兒奶粉、罐頭、食用油、醬油調味料、成人紙尿布、嬰兒紙尿布、衛生紙/棉",
        "notes": "列表為建議捐贈品，實際狀況請恰分店人員。",
        "maps_url": "https://maps.apple/p/~MFm.v30DEd.GA"
      },
      {
        "name": "板橋大觀店（超市）",
        "address": "220 新北市板橋區大觀路三段236號1樓之14、1樓之15",
        "hours": "無",
        "phone": "02-2682-5173、02-2682-5190",
        "fax": "02-2682-5074",
        "coordinates": "24.9922296,121.4297987",
        "transportation": "無",
        "parking": "無",
        "accepted_items": "米、麵條、麥片、糖、鹽、料理包、泡麵、牙膏、牙刷、肥皂、毛巾、家用清潔劑、洗衣粉、沐浴乳、洗髮精、抹布、成人奶粉、嬰兒奶粉、罐頭、食用油、醬油調味料、成人紙尿布、嬰兒紙尿布、衛生紙/棉",
        "notes": "列表為建議捐贈品，實際狀況請恰分店人員。",
        "maps_url": "https://maps.apple/p/UNhuy5mZrZik..z"
      },
      {
        "name": "板橋忠孝店（超市）",
        "address": "220 新北市板橋區忠孝路237號",
        "hours": "無",
        "phone": "02-2964-6761、02-2964-5736",
        "fax": "02-2964-9295",
        "coordinates": "25.0029087,121.4660596",
        "transportation": "無",
        "parking": "無",
        "accepted_items": "米、麵條、麥片、糖、鹽、料理包、泡麵、牙膏、牙刷、肥皂、毛巾、家用清潔劑、洗衣粉、沐浴乳、洗髮精、抹布、成人奶粉、嬰兒奶粉、罐頭、食用油、醬油調味料、成人紙尿布、嬰兒紙尿布、衛生紙/棉",
        "notes": "列表為建議捐贈品，實際狀況請恰分店人員。",
        "maps_url": "https://maps.apple/p/rBYJsTVPxSbo0b"
      },
      {
        "name": "板橋文化店（超市）",
        "address": "220 新北市板橋區文化路二段313號B1",
        "hours": "捷運：江子翠站",
        "phone": "02-2256-5121",
        "fax": "02-2256-5131",
        "coordinates": "25.029831,121.4718993",
        "transportation": "捷運：江子翠站",
        "parking": "無",
        "accepted_items": "米、麵條、麥片、糖、鹽、料理包、泡麵、牙膏、牙刷、肥皂、毛巾、家用清潔劑、洗衣粉、沐浴乳、洗髮精、抹布、成人奶粉、嬰兒奶粉、罐頭、食用油、醬油調味料、成人紙尿布、嬰兒紙尿布、衛生紙/棉",
        "notes": "列表為建議捐贈品，實際狀況請恰分店人員。",
        "maps_url": "https://maps.apple/p/BG.BnQCFK0vuGE"
      },
      {
        "name": "板橋金門二店（超市）",
        "address": "220 新北市板橋區金門街153、155、159號 ",
        "hours": "無",
        "phone": "02-2675-1057、02-2675-1043",
        "fax": "02-2675-7945",
        "coordinates": "24.9904776,121.4327088",
        "transportation": "無",
        "parking": "無",
        "accepted_items": "米、麵條、麥片、糖、鹽、料理包、泡麵、牙膏、牙刷、肥皂、毛巾、家用清潔劑、洗衣粉、沐浴乳、洗髮精、抹布、成人奶粉、嬰兒奶粉、罐頭、食用油、醬油調味料、成人紙尿布、嬰兒紙尿布、衛生紙/棉",
        "notes": "列表為建議捐贈品，實際狀況請恰分店人員。",
        "maps_url": "https://maps.apple/p/CzIc9mbdnNAbQw"
      },
      {
        "name": "汐止大同店（超市）",
        "address": "221 新北市汐止區大同路二段285號B1",
        "hours": "無",
        "phone": "02-2649-2001、02-2649-2051",
        "fax": "02-2649-2349",
        "coordinates": "25.0660134,121.6539082",
        "transportation": "無",
        "parking": "無",
        "accepted_items": "米、麵條、麥片、糖、鹽、料理包、泡麵、牙膏、牙刷、肥皂、毛巾、家用清潔劑、洗衣粉、沐浴乳、洗髮精、抹布、成人奶粉、嬰兒奶粉、罐頭、食用油、醬油調味料、成人紙尿布、嬰兒紙尿布、衛生紙/棉",
        "notes": "列表為建議捐贈品，實際狀況請恰分店人員。",
        "maps_url": "https://maps.apple/p/6xEav0z8X4Wmxb"
      },
      {
        "name": "汐止建成店（超市）",
        "address": "221 新北市汐止區建成路39號",
        "hours": "無",
        "phone": "02-2641-0815",
        "fax": "02-2641-0812",
        "coordinates": "25.0727249,121.6631975",
        "transportation": "無",
        "parking": "無",
        "accepted_items": "米、麵條、麥片、糖、鹽、料理包、泡麵、牙膏、牙刷、肥皂、毛巾、家用清潔劑、洗衣粉、沐浴乳、洗髮精、抹布、成人奶粉、嬰兒奶粉、罐頭、食用油、醬油調味料、成人紙尿布、嬰兒紙尿布、衛生紙/棉",
        "notes": "列表為建議捐贈品，實際狀況請恰分店人員。",
        "maps_url": "https://maps.apple/p/PxXeC9na8_wRXn"
      },
      {
        "name": "汐科店（量販）",
        "address": "221 新北市汐止區新台五路一段99號B1 ",
        "hours": "公車：東方科學園區站 藍15，675，678，823，907，951，汐止社區巴士F901(橫科線)，汐止社區巴士F912(大同新五線)，汐止社區巴士F915(中興線)",
        "phone": "02-2697-1098",
        "fax": "02-2697-1089",
        "coordinates": "25.0618682,121.6487317",
        "transportation": "公車：東方科學園區站 藍15，675，678，823，907，951，汐止社區巴士F901(橫科線)，汐止社區巴士F912(大同新五線)，汐止社區巴士F915(中興線)",
        "parking": "汽車775位、機車1420位、殘障8位。",
        "accepted_items": "米、麵條、麥片、糖、鹽、料理包、泡麵、牙膏、牙刷、肥皂、毛巾、家用清潔劑、洗衣粉、沐浴乳、洗髮精、抹布、成人奶粉、嬰兒奶粉、罐頭、食用油、醬油調味料、成人紙尿布、嬰兒紙尿布、衛生紙/棉、貓狗飼料和罐頭",
        "notes": "列表為建議捐贈品，實際狀況請恰分店人員。詳情：https://www.carrefour.com.tw/store-info/?store=汐科店#tab=info",
        "maps_url": "https://maps.apple/p/R443LVfC6LzLKE"
      },
      {
        "name": "汐止明峰店（超市）",
        "address": "221 新北市汐止區明峰街117號B1",
        "hours": "無",
        "phone": "02-2692-5615、02-2692-5636",
        "fax": "02-2692-5477",
        "coordinates": "25.0709744,121.6310865",
        "transportation": "無",
        "parking": "無",
        "accepted_items": "米、麵條、麥片、糖、鹽、料理包、泡麵、牙膏、牙刷、肥皂、毛巾、家用清潔劑、洗衣粉、沐浴乳、洗髮精、抹布、成人奶粉、嬰兒奶粉、罐頭、食用油、醬油調味料、成人紙尿布、嬰兒紙尿布、衛生紙/棉",
        "notes": "列表為建議捐贈品，實際狀況請恰分店人員。",
        "maps_url": "https://maps.apple/p/tyW-IUyWQ5QMeP"
      },
      {
        "name": "汐止樟樹一店（超市）",
        "address": "221 新北市汐止區樟樹一路176號1樓及174號地下室",
        "hours": "無",
        "phone": "02-2643-3749、02-2643-3841",
        "fax": "02-2643-4076",
        "coordinates": "25.0658379,121.6423808",
        "transportation": "無",
        "parking": "無",
        "accepted_items": "米、麵條、麥片、糖、鹽、料理包、泡麵、牙膏、牙刷、肥皂、毛巾、家用清潔劑、洗衣粉、沐浴乳、洗髮精、抹布、成人奶粉、嬰兒奶粉、罐頭、食用油、醬油調味料、成人紙尿布、嬰兒紙尿布、衛生紙/棉",
        "notes": "列表為建議捐贈品，實際狀況請恰分店人員。",
        "maps_url": "https://maps.apple/p/zKEaRiQ2JMw603"
      },
      {
        "name": "汐止福德一店（超市）",
        "address": "221 新北市汐止區福德一路256號",
        "hours": "無",
        "phone": "02-8693-2839、02-8693-2840",
        "fax": "02-8693-2833",
        "coordinates": "25.0647183,121.633514",
        "transportation": "無",
        "parking": "無",
        "accepted_items": "米、麵條、麥片、糖、鹽、料理包、泡麵、牙膏、牙刷、肥皂、毛巾、家用清潔劑、洗衣粉、沐浴乳、洗髮精、抹布、成人奶粉、嬰兒奶粉、罐頭、食用油、醬油調味料、成人紙尿布、嬰兒紙尿布、衛生紙/棉",
        "notes": "列表為建議捐贈品，實際狀況請恰分店人員。",
        "maps_url": "https://maps.apple/p/yTj92tKwyEVpmE"
      },
      {
        "name": "汐止龍安店（超市）",
        "address": "221 新北市汐止區龍安路28巷6號B1",
        "hours": "無",
        "phone": "02-7714-6029",
        "fax": "02-8642-4343",
        "coordinates": "25.0645481,121.6551076",
        "transportation": "無",
        "parking": "無",
        "accepted_items": "米、麵條、麥片、糖、鹽、料理包、泡麵、牙膏、牙刷、肥皂、毛巾、家用清潔劑、洗衣粉、沐浴乳、洗髮精、抹布、成人奶粉、嬰兒奶粉、罐頭、食用油、醬油調味料、成人紙尿布、嬰兒紙尿布、衛生紙/棉",
        "notes": "列表為建議捐贈品，實際狀況請恰分店人員。",
        "maps_url": "https://maps.apple/p/Z0EvwjWYXsKj5E"
      },
      {
        "name": "深坑北深店（超市）",
        "address": "222 新北市深坑區北深路三段151號",
        "hours": "無",
        "phone": "02-2664-0807、02-2664-3105",
        "fax": "02-2664-7147",
        "coordinates": "25.0030653,121.6027919",
        "transportation": "無",
        "parking": "無",
        "accepted_items": "米、麵條、麥片、糖、鹽、料理包、泡麵、牙膏、牙刷、肥皂、毛巾、家用清潔劑、洗衣粉、沐浴乳、洗髮精、抹布、成人奶粉、嬰兒奶粉、罐頭、食用油、醬油調味料、成人紙尿布、嬰兒紙尿布、衛生紙/棉",
        "notes": "列表為建議捐贈品，實際狀況請恰分店人員。",
        "maps_url": "https://maps.apple/p/QPTWAcDeZefLhW"
      },
      {
        "name": "新店店（量販）",
        "address": "231 新北市新店區中興路三段1號",
        "hours": "台北客運：1080，1073，綠2，棕7 至 裕隆工廠站、849， 綠1， 綠3 至 寶橋路口站；新店客運：647 至 寶橋路口站；欣欣客運：252，66至 裕隆工廠站，819 至 寶橋路口站。家樂福提供免費接駁專車：新店線，木柵線，安康線。詳情請恰店內公告或服務台。",
        "phone": "02-8919-3333",
        "fax": "02-2912-8989",
        "coordinates": "24.9769823,121.5461118",
        "transportation": "台北客運：1080，1073，綠2，棕7 至 裕隆工廠站、849， 綠1， 綠3 至 寶橋路口站；新店客運：647 至 寶橋路口站；欣欣客運：252，66至 裕隆工廠站，819 至 寶橋路口站。家樂福提供免費接駁專車：新店線，木柵線，安康線。詳情請恰店內公告或服務台。",
        "parking": "汽車480位、機車356位、殘障10位、親子6位。",
        "accepted_items": "米、麵條、麥片、糖、鹽、料理包、泡麵、牙膏、牙刷、肥皂、毛巾、家用清潔劑、洗衣粉、沐浴乳、洗髮精、抹布、成人奶粉、嬰兒奶粉、罐頭、食用油、醬油調味料、成人紙尿布、嬰兒紙尿布、衛生紙/棉、貓狗飼料和罐頭",
        "notes": "列表為建議捐贈品，實際狀況請恰分店人員。詳情：https://www.carrefour.com.tw/store-info/?store=新店店#tab=info",
        "maps_url": "https://maps.apple/p/TXiQ2XRcZJg-yu"
      },
      {
        "name": "新店如意店（超市）",
        "address": "231 新北市新店區如意街95、97號",
        "hours": "無",
        "phone": "02-2210-4341、02-2210-4472",
        "fax": "02-2210-4064",
        "coordinates": "24.9470197,121.4953683",
        "transportation": "無",
        "parking": "無",
        "accepted_items": "米、麵條、麥片、糖、鹽、料理包、泡麵、牙膏、牙刷、肥皂、毛巾、家用清潔劑、洗衣粉、沐浴乳、洗髮精、抹布、成人奶粉、嬰兒奶粉、罐頭、食用油、醬油調味料、成人紙尿布、嬰兒紙尿布、衛生紙/棉",
        "notes": "列表為建議捐贈品，實際狀況請恰分店人員。",
        "maps_url": "https://maps.apple/p/HF.nWqSLLM8Xiq"
      },
      {
        "name": "新店安康二店（超市）",
        "address": "231 新北市新店區安康路二段136巷59號",
        "hours": "無",
        "phone": "02-2212-1092、02-2212-0949",
        "fax": "02-2212-4150",
        "coordinates": "24.962207,121.511406",
        "transportation": "無",
        "parking": "無",
        "accepted_items": "米、麵條、麥片、糖、鹽、料理包、泡麵、牙膏、牙刷、肥皂、毛巾、家用清潔劑、洗衣粉、沐浴乳、洗髮精、抹布、成人奶粉、嬰兒奶粉、罐頭、食用油、醬油調味料、成人紙尿布、嬰兒紙尿布、衛生紙/棉",
        "notes": "列表為建議捐贈品，實際狀況請恰分店人員。",
        "maps_url": "https://maps.apple/p/KWFN_RyjJ~INxv"
      },
      {
        "name": "新店安康店（超市）",
        "address": "231 新北市新店區安康路二段196號B1",
        "hours": "無",
        "phone": "02-2211-5934、02-2211-5965",
        "fax": "02-2211-5239",
        "coordinates": "24.9599661,121.5109386",
        "transportation": "無",
        "parking": "無",
        "accepted_items": "米、麵條、麥片、糖、鹽、料理包、泡麵、牙膏、牙刷、肥皂、毛巾、家用清潔劑、洗衣粉、沐浴乳、洗髮精、抹布、成人奶粉、嬰兒奶粉、罐頭、食用油、醬油調味料、成人紙尿布、嬰兒紙尿布、衛生紙/棉",
        "notes": "列表為建議捐贈品，實際狀況請恰分店人員。",
        "maps_url": "https://maps.apple/p/Jupm0XK5WICB69"
      },
      {
        "name": "新店安祥店（超市）",
        "address": "231 新北市新店區安祥路85-89號",
        "hours": "無",
        "phone": "02-2200-8008、02-2200-8030",
        "fax": "02-2200-8001",
        "coordinates": "24.9623035,121.4806845",
        "transportation": "無",
        "parking": "無",
        "accepted_items": "米、麵條、麥片、糖、鹽、料理包、泡麵、牙膏、牙刷、肥皂、毛巾、家用清潔劑、洗衣粉、沐浴乳、洗髮精、抹布、成人奶粉、嬰兒奶粉、罐頭、食用油、醬油調味料、成人紙尿布、嬰兒紙尿布、衛生紙/棉",
        "notes": "列表為建議捐贈品，實際狀況請恰分店人員。",
        "maps_url": "https://maps.apple/p/Nw1FqUb7NFS.9~"
      },
      {
        "name": "新店新坡一店（超市）",
        "address": "231 新北市新店區新坡一街75號B1",
        "hours": "無",
        "phone": "02-2915-7750、02-2915-7675",
        "fax": "02-2915-7643",
        "coordinates": "24.9640535,121.5497118",
        "transportation": "無",
        "parking": "無",
        "accepted_items": "米、麵條、麥片、糖、鹽、料理包、泡麵、牙膏、牙刷、肥皂、毛巾、家用清潔劑、洗衣粉、沐浴乳、洗髮精、抹布、成人奶粉、嬰兒奶粉、罐頭、食用油、醬油調味料、成人紙尿布、嬰兒紙尿布、衛生紙/棉",
        "notes": "列表為建議捐贈品，實際狀況請恰分店人員。",
        "maps_url": "https://maps.apple/p/6SrYKQAd8qsz~D"
      },
      {
        "name": "新店民族店（超市）",
        "address": "231 新北市新店區民族路71號B1",
        "hours": "無",
        "phone": "02-7754-1300",
        "fax": "02-2918-4612",
        "coordinates": "24.9780376,121.5394224",
        "transportation": "無",
        "parking": "無",
        "accepted_items": "米、麵條、麥片、糖、鹽、料理包、泡麵、牙膏、牙刷、肥皂、毛巾、家用清潔劑、洗衣粉、沐浴乳、洗髮精、抹布、成人奶粉、嬰兒奶粉、罐頭、食用油、醬油調味料、成人紙尿布、嬰兒紙尿布、衛生紙/棉",
        "notes": "列表為建議捐贈品，實際狀況請恰分店人員。",
        "maps_url": "https://maps.apple/p/VVDuAQJJzaiPKN"
      },
      {
        "name": "新店溪園店（超市）",
        "address": "231 新北市新店區溪園路399號",
        "hours": "無",
        "phone": "02-8667-8042、02-8667-8047",
        "fax": "02-8667-8044",
        "coordinates": "24.9776967,121.5237836",
        "transportation": "無",
        "parking": "無",
        "accepted_items": "米、麵條、麥片、糖、鹽、料理包、泡麵、牙膏、牙刷、肥皂、毛巾、家用清潔劑、洗衣粉、沐浴乳、洗髮精、抹布、成人奶粉、嬰兒奶粉、罐頭、食用油、醬油調味料、成人紙尿布、嬰兒紙尿布、衛生紙/棉",
        "notes": "列表為建議捐贈品，實際狀況請恰分店人員。",
        "maps_url": "https://maps.apple/p/gwqMmpWqxVqJHQ"
      },
      {
        "name": "永和永安店（超市）",
        "address": "234 新北市永和區中和路499-1號 ",
        "hours": "無",
        "phone": "02-2232-7755",
        "fax": "02-2923-1122",
        "coordinates": "25.0023259,121.5105864",
        "transportation": "無",
        "parking": "無",
        "accepted_items": "米、麵條、麥片、糖、鹽、料理包、泡麵、牙膏、牙刷、肥皂、毛巾、家用清潔劑、洗衣粉、沐浴乳、洗髮精、抹布、成人奶粉、嬰兒奶粉、罐頭、食用油、醬油調味料、成人紙尿布、嬰兒紙尿布、衛生紙/棉",
        "notes": "列表為建議捐贈品，實際狀況請恰分店人員。",
        "maps_url": "https://maps.apple/p/USDiEfYNV3b-iW"
      },
      {
        "name": "永和仁愛店（超市）",
        "address": "234 新北市永和區仁愛路152號B1",
        "hours": "無",
        "phone": "02-2921-5698、02-2925-3555",
        "fax": "02-2927-5350",
        "coordinates": "25.013016,121.5107346",
        "transportation": "無",
        "parking": "無",
        "accepted_items": "米、麵條、麥片、糖、鹽、料理包、泡麵、牙膏、牙刷、肥皂、毛巾、家用清潔劑、洗衣粉、沐浴乳、洗髮精、抹布、成人奶粉、嬰兒奶粉、罐頭、食用油、醬油調味料、成人紙尿布、嬰兒紙尿布、衛生紙/棉",
        "notes": "列表為建議捐贈品，實際狀況請恰分店人員。",
        "maps_url": "https://maps.apple/p/iq99bJm.CVzK1b"
      },
      {
        "name": "永和竹林店（超市）",
        "address": "234 新北市永和區竹林路60號",
        "hours": "無",
        "phone": "02-2926-6951、02-2926-7343",
        "fax": "02-2926-7532",
        "coordinates": "25.0137715,121.5180937",
        "transportation": "無",
        "parking": "無",
        "accepted_items": "米、麵條、麥片、糖、鹽、料理包、泡麵、牙膏、牙刷、肥皂、毛巾、家用清潔劑、洗衣粉、沐浴乳、洗髮精、抹布、成人奶粉、嬰兒奶粉、罐頭、食用油、醬油調味料、成人紙尿布、嬰兒紙尿布、衛生紙/棉",
        "notes": "列表為建議捐贈品，實際狀況請恰分店人員。",
        "maps_url": "https://maps.apple/p/FBW1ymzH6Fi8MM"
      },
      {
        "name": "中和中山店（超市）",
        "address": "235 新北市中和區中山路三段1-3號",
        "hours": "無",
        "phone": "02-8221-2870",
        "fax": "02-8221-2872",
        "coordinates": "25.0056675,121.4799516",
        "transportation": "無",
        "parking": "無",
        "accepted_items": "米、麵條、麥片、糖、鹽、料理包、泡麵、牙膏、牙刷、肥皂、毛巾、家用清潔劑、洗衣粉、沐浴乳、洗髮精、抹布、成人奶粉、嬰兒奶粉、罐頭、食用油、醬油調味料、成人紙尿布、嬰兒紙尿布、衛生紙/棉",
        "notes": "列表為建議捐贈品，實際狀況請恰分店人員。",
        "maps_url": "https://maps.apple/p/cCx5UCnyC-YGH0"
      },
      {
        "name": "中和店（量販）",
        "address": "235 新北市中和區中山路二段295號B1",
        "hours": "公車：直達家樂福 307，311，628，202，262，板基......等多線公車",
        "phone": "02-8245-5566",
        "fax": "02-8245-5577",
        "coordinates": "25.0021959,121.4958702",
        "transportation": "公車：直達家樂福 307，311，628，202，262，板基......等多線公車",
        "parking": "汽車400位、機車900位、殘障7位、親子6位。",
        "accepted_items": "米、麵條、麥片、糖、鹽、料理包、泡麵、牙膏、牙刷、肥皂、毛巾、家用清潔劑、洗衣粉、沐浴乳、洗髮精、抹布、成人奶粉、嬰兒奶粉、罐頭、食用油、醬油調味料、成人紙尿布、嬰兒紙尿布、衛生紙/棉、貓狗飼料和罐頭",
        "notes": "列表為建議捐贈品，實際狀況請恰分店人員。詳情：https://www.carrefour.com.tw/store-info/?store=中和店#tab=info",
        "maps_url": "https://maps.apple/p/iNBv5_w7ZZEZbJ"
      },
      {
        "name": "中和圓通店（超市）",
        "address": "235 新北市中和區圓通路274號",
        "hours": "無",
        "phone": "02-2249-8224、02-2249-7404",
        "fax": "02-2249-4834",
        "coordinates": "24.9908257,121.4922936",
        "transportation": "無",
        "parking": "無",
        "accepted_items": "米、麵條、麥片、糖、鹽、料理包、泡麵、牙膏、牙刷、肥皂、毛巾、家用清潔劑、洗衣粉、沐浴乳、洗髮精、抹布、成人奶粉、嬰兒奶粉、罐頭、食用油、醬油調味料、成人紙尿布、嬰兒紙尿布、衛生紙/棉",
        "notes": "列表為建議捐贈品，實際狀況請恰分店人員。",
        "maps_url": "https://maps.apple/p/3u7cek8VDxxifT"
      },
      {
        "name": "中和壽德店（超市）",
        "address": "235 新北市中和區壽德街20號1樓",
        "hours": "無",
        "phone": "02-2964-3543、02-2964-3541",
        "fax": "02-2964-9356",
        "coordinates": "24.9947393,121.4661083",
        "transportation": "無",
        "parking": "無",
        "accepted_items": "米、麵條、麥片、糖、鹽、料理包、泡麵、牙膏、牙刷、肥皂、毛巾、家用清潔劑、洗衣粉、沐浴乳、洗髮精、抹布、成人奶粉、嬰兒奶粉、罐頭、食用油、醬油調味料、成人紙尿布、嬰兒紙尿布、衛生紙/棉",
        "notes": "列表為建議捐贈品，實際狀況請恰分店人員。",
        "maps_url": "https://maps.apple/p/9GYx54viDBzn_Y"
      },
      {
        "name": "中和復興店（超市）",
        "address": "235 新北市中和區復興路268號",
        "hours": "無",
        "phone": "02-8242-3945",
        "fax": "02-8242-3947",
        "coordinates": "24.9904523,121.5029805",
        "transportation": "無",
        "parking": "無",
        "accepted_items": "米、麵條、麥片、糖、鹽、料理包、泡麵、牙膏、牙刷、肥皂、毛巾、家用清潔劑、洗衣粉、沐浴乳、洗髮精、抹布、成人奶粉、嬰兒奶粉、罐頭、食用油、醬油調味料、成人紙尿布、嬰兒紙尿布、衛生紙/棉",
        "notes": "列表為建議捐贈品，實際狀況請恰分店人員。",
        "maps_url": "https://maps.apple/p/nLSzFoLPgToZ1Y"
      },
      {
        "name": "景安店（超市）",
        "address": "235 新北市中和區景平路353號B1",
        "hours": "公車：捷運景安站 綠2、橘5、10、66、242、275、908；捷運：景安站",
        "phone": "02-2240-9628",
        "fax": "02-2240-9728",
        "coordinates": "24.9933178,121.5047731",
        "transportation": "公車：捷運景安站 綠2、橘5、10、66、242、275、908；捷運：景安站",
        "parking": "無",
        "accepted_items": "米、麵條、麥片、糖、鹽、料理包、泡麵、牙膏、牙刷、肥皂、毛巾、家用清潔劑、洗衣粉、沐浴乳、洗髮精、抹布、成人奶粉、嬰兒奶粉、罐頭、食用油、醬油調味料、成人紙尿布、嬰兒紙尿布、衛生紙/棉",
        "notes": "列表為建議捐贈品，實際狀況請恰分店人員。",
        "maps_url": "https://maps.apple/p/HmT-znzgnEtf1X"
      },
      {
        "name": "中和民治店（超市）",
        "address": "235 新北市中和區民治街120號",
        "hours": "無",
        "phone": "02-8221-8517、02-8221-8597",
        "fax": "02-8221-2496",
        "coordinates": "25.0034731,121.4750737",
        "transportation": "無",
        "parking": "無",
        "accepted_items": "米、麵條、麥片、糖、鹽、料理包、泡麵、牙膏、牙刷、肥皂、毛巾、家用清潔劑、洗衣粉、沐浴乳、洗髮精、抹布、成人奶粉、嬰兒奶粉、罐頭、食用油、醬油調味料、成人紙尿布、嬰兒紙尿布、衛生紙/棉",
        "notes": "列表為建議捐贈品，實際狀況請恰分店人員。",
        "maps_url": "https://maps.apple/p/-TAFFbQrzM50wm"
      },
      {
        "name": "中和興南店（超市）",
        "address": "235 新北市中和區興南路一段20號B1",
        "hours": "無",
        "phone": "02-2948-1240~1",
        "fax": "02-2944-9334",
        "coordinates": "24.9911861,121.5113373",
        "transportation": "無",
        "parking": "無",
        "accepted_items": "米、麵條、麥片、糖、鹽、料理包、泡麵、牙膏、牙刷、肥皂、毛巾、家用清潔劑、洗衣粉、沐浴乳、洗髮精、抹布、成人奶粉、嬰兒奶粉、罐頭、食用油、醬油調味料、成人紙尿布、嬰兒紙尿布、衛生紙/棉",
        "notes": "列表為建議捐贈品，實際狀況請恰分店人員。",
        "maps_url": "https://maps.apple/p/CrGULHGWu3zATi"
      },
      {
        "name": "土城中央店（超市）",
        "address": "236 新北市土城區中央路二段191號B1",
        "hours": "公車：土城農會站 275副線 步行約2分鐘、長風新城站 05線 步行約1分鐘，805線 步行約1分鐘，9103線 步行約1分鐘；捷運：土城站2號出口 步行約5分鐘",
        "phone": "02-2265-5626",
        "fax": "02-2265-5626#117",
        "coordinates": "24.9755185,121.4421271",
        "transportation": "公車：土城農會站 275副線 步行約2分鐘、長風新城站 05線 步行約1分鐘，805線 步行約1分鐘，9103線 步行約1分鐘；捷運：土城站2號出口 步行約5分鐘",
        "parking": "機車20位。",
        "accepted_items": "米、麵條、麥片、糖、鹽、料理包、泡麵、牙膏、牙刷、肥皂、毛巾、家用清潔劑、洗衣粉、沐浴乳、洗髮精、抹布、成人奶粉、嬰兒奶粉、罐頭、食用油、醬油調味料、成人紙尿布、嬰兒紙尿布、衛生紙/棉",
        "notes": "列表為建議捐贈品，實際狀況請恰分店人員。",
        "maps_url": "https://maps.apple/p/gSI6h4LIYaZJ.U"
      },
      {
        "name": "土城學府店（超市）",
        "address": "236 新北市土城區學府路一段157,161號",
        "hours": "無",
        "phone": "02-8273-2574、02-8273-2584",
        "fax": "02-8273-2545",
        "coordinates": "24.9858779,121.4531985",
        "transportation": "無",
        "parking": "無",
        "accepted_items": "米、麵條、麥片、糖、鹽、料理包、泡麵、牙膏、牙刷、肥皂、毛巾、家用清潔劑、洗衣粉、沐浴乳、洗髮精、抹布、成人奶粉、嬰兒奶粉、罐頭、食用油、醬油調味料、成人紙尿布、嬰兒紙尿布、衛生紙/棉",
        "notes": "列表為建議捐贈品，實際狀況請恰分店人員。",
        "maps_url": "https://maps.apple/p/FZXETCWfYXJ.L4"
      },
      {
        "name": "土城日月光店（超市）",
        "address": "236 新北市土城區學府路二段210號B2樓",
        "hours": "公車：員林里 705，805，812，985，1962，9103，F605，F606；捷運：土城站，海山站",
        "phone": "02-2263-5268",
        "fax": "02-2263-5256",
        "coordinates": "24.9787655,121.4451275",
        "transportation": "公車：員林里 705，805，812，985，1962，9103，F605，F606；捷運：土城站，海山站",
        "parking": "無",
        "accepted_items": "米、麵條、麥片、糖、鹽、料理包、泡麵、牙膏、牙刷、肥皂、毛巾、家用清潔劑、洗衣粉、沐浴乳、洗髮精、抹布、成人奶粉、嬰兒奶粉、罐頭、食用油、醬油調味料、成人紙尿布、嬰兒紙尿布、衛生紙/棉",
        "notes": "列表為建議捐贈品，實際狀況請恰分店人員。",
        "maps_url": "https://maps.apple/p/NM6iho-~CuhqbJ"
      },
      {
        "name": "土城廣明店（超市）",
        "address": "236 新北市土城區廣明街63巷31號1F",
        "hours": "無",
        "phone": "02-8966-0529",
        "fax": "02-8966-0529#117",
        "coordinates": "24.9927275,121.4539389",
        "transportation": "無",
        "parking": "無",
        "accepted_items": "米、麵條、麥片、糖、鹽、料理包、泡麵、牙膏、牙刷、肥皂、毛巾、家用清潔劑、洗衣粉、沐浴乳、洗髮精、抹布、成人奶粉、嬰兒奶粉、罐頭、食用油、醬油調味料、成人紙尿布、嬰兒紙尿布、衛生紙/棉",
        "notes": "列表為建議捐贈品，實際狀況請恰分店人員。",
        "maps_url": "https://maps.apple/p/2XTK8HA5HGy-zD"
      },
      {
        "name": "土城立德店（超市）",
        "address": "236 新北市土城區立德路105號",
        "hours": "無",
        "phone": "02-2273-6908、02-2273-6903",
        "fax": "02-2273-6914",
        "coordinates": "24.9875165,121.4638114",
        "transportation": "無",
        "parking": "無",
        "accepted_items": "米、麵條、麥片、糖、鹽、料理包、泡麵、牙膏、牙刷、肥皂、毛巾、家用清潔劑、洗衣粉、沐浴乳、洗髮精、抹布、成人奶粉、嬰兒奶粉、罐頭、食用油、醬油調味料、成人紙尿布、嬰兒紙尿布、衛生紙/棉",
        "notes": "列表為建議捐贈品，實際狀況請恰分店人員。",
        "maps_url": "https://maps.apple/p/FotiDA-hhrV4In"
      },
      {
        "name": "土城金城店（超市）",
        "address": "236 新北市土城區金城路三段202-6號",
        "hours": "無",
        "phone": "02-2270-7730、02-2270-8462",
        "fax": "02-2270-3774",
        "coordinates": "24.9875861,121.4689209",
        "transportation": "無",
        "parking": "無",
        "accepted_items": "米、麵條、麥片、糖、鹽、料理包、泡麵、牙膏、牙刷、肥皂、毛巾、家用清潔劑、洗衣粉、沐浴乳、洗髮精、抹布、成人奶粉、嬰兒奶粉、罐頭、食用油、醬油調味料、成人紙尿布、嬰兒紙尿布、衛生紙/棉",
        "notes": "列表為建議捐贈品，實際狀況請恰分店人員。",
        "maps_url": "https://maps.apple/p/3.D2B9TTRSwsyc"
      },
      {
        "name": "土城店（量販）",
        "address": "236 新北市土城區青雲路152號B1",
        "hours": "見「 備註」。",
        "phone": "02-2265-6001",
        "fax": "02-2265-5313",
        "coordinates": "24.9833863,121.459012",
        "transportation": "見「 備註」。",
        "parking": "汽車420位。平日15元、假日20元  /半小時，第一小時一小時計。",
        "accepted_items": "米、麵條、麥片、糖、鹽、料理包、泡麵、牙膏、牙刷、肥皂、毛巾、家用清潔劑、洗衣粉、沐浴乳、洗髮精、抹布、成人奶粉、嬰兒奶粉、罐頭、食用油、醬油調味料、成人紙尿布、嬰兒紙尿布、衛生紙/棉、貓狗飼料和罐頭",
        "notes": "交通和停車詳情：https://www.carrefour.com.tw/store-info/?store=土城店#tab=info 。列表為建議捐贈品，實際狀況請恰分店人員。",
        "maps_url": "https://maps.apple/p/XRJmunzzf1cA5o"
      },
      {
        "name": "三峽中山店（超市）",
        "address": "237 新北市三峽區中山路171號",
        "hours": "無",
        "phone": "02-8671-3230、02-8671-3231",
        "fax": "02-2673-9523",
        "coordinates": "24.9364612,121.3641664",
        "transportation": "無",
        "parking": "無",
        "accepted_items": "米、麵條、麥片、糖、鹽、料理包、泡麵、牙膏、牙刷、肥皂、毛巾、家用清潔劑、洗衣粉、沐浴乳、洗髮精、抹布、成人奶粉、嬰兒奶粉、罐頭、食用油、醬油調味料、成人紙尿布、嬰兒紙尿布、衛生紙/棉",
        "notes": "列表為建議捐贈品，實際狀況請恰分店人員。",
        "maps_url": "https://maps.apple/p/HNCRgzFVnfsyyP"
      },
      {
        "name": "三峽光明店（超市）",
        "address": "237 新北市三峽區光明路71號",
        "hours": "無",
        "phone": "02-8671-1790、02-8671-1796",
        "fax": "02-8671-7946",
        "coordinates": "24.9282966,121.3761293",
        "transportation": "無",
        "parking": "無",
        "accepted_items": "米、麵條、麥片、糖、鹽、料理包、泡麵、牙膏、牙刷、肥皂、毛巾、家用清潔劑、洗衣粉、沐浴乳、洗髮精、抹布、成人奶粉、嬰兒奶粉、罐頭、食用油、醬油調味料、成人紙尿布、嬰兒紙尿布、衛生紙/棉",
        "notes": "列表為建議捐贈品，實際狀況請恰分店人員。",
        "maps_url": "https://maps.apple/p/pXYMroY~cJDqp.z"
      },
      {
        "name": "三峽大學店（超市）",
        "address": "237 新北市三峽區大學路119.121.123號一樓",
        "hours": "無",
        "phone": "02-2673-8188",
        "fax": "無",
        "coordinates": "24.9428447,121.3747509",
        "transportation": "無",
        "parking": "無",
        "accepted_items": "米、麵條、麥片、糖、鹽、料理包、泡麵、牙膏、牙刷、肥皂、毛巾、家用清潔劑、洗衣粉、沐浴乳、洗髮精、抹布、成人奶粉、嬰兒奶粉、罐頭、食用油、醬油調味料、成人紙尿布、嬰兒紙尿布、衛生紙/棉",
        "notes": "列表為建議捐贈品，實際狀況請恰分店人員。",
        "maps_url": "https://maps.apple/p/4bS1fietfLVo89"
      },
      {
        "name": "樹林店（量販）",
        "address": "238 新北市樹林區大安路118號",
        "hours": "三東紡織站/潭底站 701，712，橘26，藍38、家樂福公司 799，843，858，859",
        "phone": "02-2681-0000",
        "fax": "02-2682-9630",
        "coordinates": "24.9969875,121.421238",
        "transportation": "三東紡織站/潭底站 701，712，橘26，藍38、家樂福公司 799，843，858，859",
        "parking": "汽車457位、機車400位、殘障7位、親子12位。汽車30元/小時 入場前30分鐘免費。",
        "accepted_items": "米、麵條、麥片、糖、鹽、料理包、泡麵、牙膏、牙刷、肥皂、毛巾、家用清潔劑、洗衣粉、沐浴乳、洗髮精、抹布、成人奶粉、嬰兒奶粉、罐頭、食用油、醬油調味料、成人紙尿布、嬰兒紙尿布、衛生紙/棉、貓狗飼料和罐頭",
        "notes": "列表為建議捐贈品，實際狀況請恰分店人員。詳情：https://www.carrefour.com.tw/store-info/?store=樹林店#tab=info",
        "maps_url": "https://maps.apple/p/WvihoZ~56wxivh"
      },
      {
        "name": "北大店（量販）",
        "address": "238 新北市樹林區大雅路288號B1",
        "hours": "無",
        "phone": "02-3501-6879",
        "fax": "02-3501-6655",
        "coordinates": "24.9476011,121.3798744",
        "transportation": "無",
        "parking": "汽車262位、殘障4位、親子4位。",
        "accepted_items": "米、麵條、麥片、糖、鹽、料理包、泡麵、牙膏、牙刷、肥皂、毛巾、家用清潔劑、洗衣粉、沐浴乳、洗髮精、抹布、成人奶粉、嬰兒奶粉、罐頭、食用油、醬油調味料、成人紙尿布、嬰兒紙尿布、衛生紙/棉、貓狗飼料和罐頭",
        "notes": "列表為建議捐贈品，實際狀況請恰分店人員。詳情：https://www.carrefour.com.tw/store-info/?store=北大店#tab=info",
        "maps_url": "https://maps.apple/p/bdH2rj-4PJVfNB"
      },
      {
        "name": "樹林太順店（超市）",
        "address": "238 新北市樹林區太順路64號、66號、68號",
        "hours": "無",
        "phone": "02-8684-9572、02-8684-9573",
        "fax": "02-8684-9575",
        "coordinates": "24.9792852,121.4178233",
        "transportation": "無",
        "parking": "無",
        "accepted_items": "米、麵條、麥片、糖、鹽、料理包、泡麵、牙膏、牙刷、肥皂、毛巾、家用清潔劑、洗衣粉、沐浴乳、洗髮精、抹布、成人奶粉、嬰兒奶粉、罐頭、食用油、醬油調味料、成人紙尿布、嬰兒紙尿布、衛生紙/棉",
        "notes": "列表為建議捐贈品，實際狀況請恰分店人員。",
        "maps_url": "https://maps.apple/p/vk_qng.jMhRsUU"
      },
      {
        "name": "樹林學成店（超市）",
        "address": "238 新北市樹林區學成路536號",
        "hours": "無",
        "phone": "02-2680-4208、02-2680-4216",
        "fax": "02-2680-4219",
        "coordinates": "24.9454798,121.3805357",
        "transportation": "無",
        "parking": "無",
        "accepted_items": "米、麵條、麥片、糖、鹽、料理包、泡麵、牙膏、牙刷、肥皂、毛巾、家用清潔劑、洗衣粉、沐浴乳、洗髮精、抹布、成人奶粉、嬰兒奶粉、罐頭、食用油、醬油調味料、成人紙尿布、嬰兒紙尿布、衛生紙/棉",
        "notes": "列表為建議捐贈品，實際狀況請恰分店人員。",
        "maps_url": "https://maps.apple/p/bT.JoVcAIwXcnu"
      },
      {
        "name": "樹林復興店（超市）",
        "address": "238 新北市樹林區復興路198號",
        "hours": "無",
        "phone": "02-2675-4662",
        "fax": "02-2675-4671",
        "coordinates": "24.9909119,121.4198762",
        "transportation": "無",
        "parking": "無",
        "accepted_items": "米、麵條、麥片、糖、鹽、料理包、泡麵、牙膏、牙刷、肥皂、毛巾、家用清潔劑、洗衣粉、沐浴乳、洗髮精、抹布、成人奶粉、嬰兒奶粉、罐頭、食用油、醬油調味料、成人紙尿布、嬰兒紙尿布、衛生紙/棉",
        "notes": "列表為建議捐贈品，實際狀況請恰分店人員。",
        "maps_url": "https://maps.apple/p/L6v0GdKg6_C.Y-"
      },
      {
        "name": "三重中正北店（超市）",
        "address": "241 新北市三重區中正北路67號、69號",
        "hours": "無",
        "phone": "02-2984-9994、02-2984-9814",
        "fax": "02-2984-8400",
        "coordinates": "25.0630831,121.4903304",
        "transportation": "無",
        "parking": "無",
        "accepted_items": "米、麵條、麥片、糖、鹽、料理包、泡麵、牙膏、牙刷、肥皂、毛巾、家用清潔劑、洗衣粉、沐浴乳、洗髮精、抹布、成人奶粉、嬰兒奶粉、罐頭、食用油、醬油調味料、成人紙尿布、嬰兒紙尿布、衛生紙/棉",
        "notes": "列表為建議捐贈品，實際狀況請恰分店人員。",
        "maps_url": "https://maps.apple/p/_g1Qex.pUZWkij"
      },
      {
        "name": "三重五華店（超市）",
        "address": "241 新北市三重區五華街110巷1-4號",
        "hours": "無",
        "phone": "02-2981-0980~1",
        "fax": "02-8982-6834",
        "coordinates": "25.0830055,121.4920479",
        "transportation": "無",
        "parking": "無",
        "accepted_items": "米、麵條、麥片、糖、鹽、料理包、泡麵、牙膏、牙刷、肥皂、毛巾、家用清潔劑、洗衣粉、沐浴乳、洗髮精、抹布、成人奶粉、嬰兒奶粉、罐頭、食用油、醬油調味料、成人紙尿布、嬰兒紙尿布、衛生紙/棉",
        "notes": "列表為建議捐贈品，實際狀況請恰分店人員。",
        "maps_url": "https://maps.apple/p/1945qjA1fEC0u9"
      },
      {
        "name": "蘆洲店（量販）",
        "address": "241 新北市三重區五華街282號",
        "hours": "公車：三重客運 508 (經三重線或泰山線)，紅9，811、首都客運 39，618，62，226，539、中興客運 815，816；捷運：徐匯中學站 往集賢路方向步行15分鐘 或轉搭以下公車：家樂福站 927，橘13，橘19，815",
        "phone": "02-8287-9000",
        "fax": "02-8287-9090",
        "coordinates": "25.0879954,121.4864798",
        "transportation": "公車：三重客運 508 (經三重線或泰山線)，紅9，811、首都客運 39，618，62，226，539、中興客運 815，816；捷運：徐匯中學站 往集賢路方向步行15分鐘 或轉搭以下公車：家樂福站 927，橘13，橘19，815",
        "parking": "汽車319位、機車240位、殘障6位、親子9位。",
        "accepted_items": "米、麵條、麥片、糖、鹽、料理包、泡麵、牙膏、牙刷、肥皂、毛巾、家用清潔劑、洗衣粉、沐浴乳、洗髮精、抹布、成人奶粉、嬰兒奶粉、罐頭、食用油、醬油調味料、成人紙尿布、嬰兒紙尿布、衛生紙/棉、貓狗飼料和罐頭",
        "notes": "列表為建議捐贈品，實際狀況請恰分店人員。詳情：https://www.carrefour.com.tw/store-info/?store=蘆洲店#tab=info",
        "maps_url": "https://maps.apple/p/PFULN~~UbdAwC3"
      },
      {
        "name": "三重仁愛二店（超市）",
        "address": "241 新北市三重區仁愛街81號",
        "hours": "無",
        "phone": "02-2976-3213、02-2976-4507",
        "fax": "02-2976-1841",
        "coordinates": "25.0731364,121.4960591",
        "transportation": "無",
        "parking": "無",
        "accepted_items": "米、麵條、麥片、糖、鹽、料理包、泡麵、牙膏、牙刷、肥皂、毛巾、家用清潔劑、洗衣粉、沐浴乳、洗髮精、抹布、成人奶粉、嬰兒奶粉、罐頭、食用油、醬油調味料、成人紙尿布、嬰兒紙尿布、衛生紙/棉",
        "notes": "列表為建議捐贈品，實際狀況請恰分店人員。",
        "maps_url": "https://maps.apple/p/fQBfsz4rg02qQm"
      },
      {
        "name": "三重新北大道店（超市）",
        "address": "241 新北市三重區新北大道一段115號B1",
        "hours": "無",
        "phone": "02-2988-9196",
        "fax": "02-2988-9196#117",
        "coordinates": "25.0612395,121.4836273",
        "transportation": "無",
        "parking": "無",
        "accepted_items": "米、麵條、麥片、糖、鹽、料理包、泡麵、牙膏、牙刷、肥皂、毛巾、家用清潔劑、洗衣粉、沐浴乳、洗髮精、抹布、成人奶粉、嬰兒奶粉、罐頭、食用油、醬油調味料、成人紙尿布、嬰兒紙尿布、衛生紙/棉",
        "notes": "列表為建議捐贈品，實際狀況請恰分店人員。",
        "maps_url": "https://maps.apple/p/RGiI~FKDDSrn_-"
      },
      {
        "name": "三重永福店（超市）",
        "address": "241 新北市三重區永福街245、247、249號",
        "hours": "無",
        "phone": "02-2280-1127、02-2280-0127",
        "fax": "02-2280-5141",
        "coordinates": "25.0743094,121.4811091",
        "transportation": "無",
        "parking": "無",
        "accepted_items": "米、麵條、麥片、糖、鹽、料理包、泡麵、牙膏、牙刷、肥皂、毛巾、家用清潔劑、洗衣粉、沐浴乳、洗髮精、抹布、成人奶粉、嬰兒奶粉、罐頭、食用油、醬油調味料、成人紙尿布、嬰兒紙尿布、衛生紙/棉",
        "notes": "列表為建議捐贈品，實際狀況請恰分店人員。",
        "maps_url": "https://maps.apple/p/zqgNsMmhdyScoL"
      },
      {
        "name": "三重溪尾店（超市）",
        "address": "241 新北市三重區溪尾街125號1樓",
        "hours": "無",
        "phone": "02-8985-2820",
        "fax": "02-8985-2819",
        "coordinates": "25.0796964,121.4893002",
        "transportation": "無",
        "parking": "無",
        "accepted_items": "米、麵條、麥片、糖、鹽、料理包、泡麵、牙膏、牙刷、肥皂、毛巾、家用清潔劑、洗衣粉、沐浴乳、洗髮精、抹布、成人奶粉、嬰兒奶粉、罐頭、食用油、醬油調味料、成人紙尿布、嬰兒紙尿布、衛生紙/棉",
        "notes": "列表為建議捐贈品，實際狀況請恰分店人員。",
        "maps_url": "https://maps.apple/p/mazb6Ro.VJSIPB"
      },
      {
        "name": "重新店（量販）",
        "address": "241 新北市三重區重新路五段654號",
        "hours": "公車：111，214，214直，227，235，242，248，249，250，257，262，262區，297，304承德路，304重慶北 ，513 ，616 ，622 ，624 ，635 ，635(副) ，636，637，638，639，663，670，706，藍2",
        "phone": "02-2999-5000",
        "fax": "02-2995-9966",
        "coordinates": "25.0433112,121.4675197",
        "transportation": "公車：111，214，214直，227，235，242，248，249，250，257，262，262區，297，304承德路，304重慶北 ，513 ，616 ，622 ，624 ，635 ，635(副) ，636，637，638，639，663，670，706，藍2",
        "parking": "汽車475位、機車610位、殘障5位、親子4位。",
        "accepted_items": "米、麵條、麥片、糖、鹽、料理包、泡麵、牙膏、牙刷、肥皂、毛巾、家用清潔劑、洗衣粉、沐浴乳、洗髮精、抹布、成人奶粉、嬰兒奶粉、罐頭、食用油、醬油調味料、成人紙尿布、嬰兒紙尿布、衛生紙/棉、貓狗飼料和罐頭",
        "notes": "列表為建議捐贈品，實際狀況請恰分店人員。詳情：https://www.carrefour.com.tw/store-info/?store=重新店#tab=info",
        "maps_url": "https://maps.apple/p/IVIy2BsyY3mdvA"
      },
      {
        "name": "三重重陽店（超市）",
        "address": "241 新北市三重區重陽路一段41號",
        "hours": "無",
        "phone": "02-8982-9137~8",
        "fax": "02-8981-4555",
        "coordinates": "25.0579528,121.4868561",
        "transportation": "無",
        "parking": "無",
        "accepted_items": "米、麵條、麥片、糖、鹽、料理包、泡麵、牙膏、牙刷、肥皂、毛巾、家用清潔劑、洗衣粉、沐浴乳、洗髮精、抹布、成人奶粉、嬰兒奶粉、罐頭、食用油、醬油調味料、成人紙尿布、嬰兒紙尿布、衛生紙/棉",
        "notes": "列表為建議捐贈品，實際狀況請恰分店人員。",
        "maps_url": "https://maps.apple/p/m1-FJYquHDiaxr"
      },
      {
        "name": "泰山明志店（超市）",
        "address": "243 新北市泰山區明志路二段95-97號",
        "hours": "無",
        "phone": "02-2296-5072",
        "fax": "02-2296-5074",
        "coordinates": "25.0519545,121.4284666",
        "transportation": "無",
        "parking": "無",
        "accepted_items": "米、麵條、麥片、糖、鹽、料理包、泡麵、牙膏、牙刷、肥皂、毛巾、家用清潔劑、洗衣粉、沐浴乳、洗髮精、抹布、成人奶粉、嬰兒奶粉、罐頭、食用油、醬油調味料、成人紙尿布、嬰兒紙尿布、衛生紙/棉",
        "notes": "列表為建議捐贈品，實際狀況請恰分店人員。",
        "maps_url": "https://maps.apple/p/XJYvG6-KhdRK3v"
      },
      {
        "name": "林口仁愛店（超市）",
        "address": "244 新北市林口區仁愛路二段89號",
        "hours": "無",
        "phone": "02-7754-1985",
        "fax": "02-2601-7597",
        "coordinates": "25.0753745,121.3847564",
        "transportation": "無",
        "parking": "無",
        "accepted_items": "米、麵條、麥片、糖、鹽、料理包、泡麵、牙膏、牙刷、肥皂、毛巾、家用清潔劑、洗衣粉、沐浴乳、洗髮精、抹布、成人奶粉、嬰兒奶粉、罐頭、食用油、醬油調味料、成人紙尿布、嬰兒紙尿布、衛生紙/棉",
        "notes": "列表為建議捐贈品，實際狀況請恰分店人員。",
        "maps_url": "https://maps.apple/p/JoJTnRudPdWqPQ"
      },
      {
        "name": "林口文化一店（超市）",
        "address": "244 新北市林口區文化三路一段319、321、323、325號",
        "hours": "無",
        "phone": "02-77542000",
        "fax": "02-2600-0244",
        "coordinates": "25.0722793,121.3642243",
        "transportation": "無",
        "parking": "無",
        "accepted_items": "米、麵條、麥片、糖、鹽、料理包、泡麵、牙膏、牙刷、肥皂、毛巾、家用清潔劑、洗衣粉、沐浴乳、洗髮精、抹布、成人奶粉、嬰兒奶粉、罐頭、食用油、醬油調味料、成人紙尿布、嬰兒紙尿布、衛生紙/棉",
        "notes": "列表為建議捐贈品，實際狀況請恰分店人員。",
        "maps_url": "https://maps.apple/p/Ws1xd_iHjffiC3"
      },
      {
        "name": "林口文化三店（超市）",
        "address": "244 新北市林口區文化三路一段543號",
        "hours": "無",
        "phone": "02-2600-9770、02-2600-9576",
        "fax": "02-2600-9561",
        "coordinates": "25.0757351,121.3696028",
        "transportation": "無",
        "parking": "無",
        "accepted_items": "米、麵條、麥片、糖、鹽、料理包、泡麵、牙膏、牙刷、肥皂、毛巾、家用清潔劑、洗衣粉、沐浴乳、洗髮精、抹布、成人奶粉、嬰兒奶粉、罐頭、食用油、醬油調味料、成人紙尿布、嬰兒紙尿布、衛生紙/棉",
        "notes": "列表為建議捐贈品，實際狀況請恰分店人員。",
        "maps_url": "https://maps.apple/p/VI.E5dR~15bR0X"
      },
      {
        "name": "林口店（量販）",
        "address": "244 新北市林口區文化二路一段 559 號 B1",
        "hours": "無",
        "phone": "02-2602-5858",
        "fax": "02-2602-5757",
        "coordinates": "25.0776341,121.3741435",
        "transportation": "無",
        "parking": "汽車605位、殘障3位、親子6位。平日20元、假日25元 /半小時。",
        "accepted_items": "米、麵條、麥片、糖、鹽、料理包、泡麵、牙膏、牙刷、肥皂、毛巾、家用清潔劑、洗衣粉、沐浴乳、洗髮精、抹布、成人奶粉、嬰兒奶粉、罐頭、食用油、醬油調味料、成人紙尿布、嬰兒紙尿布、衛生紙/棉、貓狗飼料和罐頭",
        "notes": "列表為建議捐贈品，實際狀況請恰分店人員。詳情：https://www.carrefour.com.tw/store-info/?store=林口店#tab=info",
        "maps_url": "https://maps.apple/p/iAc0wrIUY~I1e1"
      },
      {
        "name": "蘆洲三民店（超市）",
        "address": "247 新北市蘆洲區三民路54號",
        "hours": "無",
        "phone": "02-2847-6454",
        "fax": "02-8282-3126",
        "coordinates": "25.0836526,121.4755057",
        "transportation": "無",
        "parking": "無",
        "accepted_items": "米、麵條、麥片、糖、鹽、料理包、泡麵、牙膏、牙刷、肥皂、毛巾、家用清潔劑、洗衣粉、沐浴乳、洗髮精、抹布、成人奶粉、嬰兒奶粉、罐頭、食用油、醬油調味料、成人紙尿布、嬰兒紙尿布、衛生紙/棉",
        "notes": "列表為建議捐贈品，實際狀況請恰分店人員。",
        "maps_url": "https://maps.apple/p/1.yn2zIVdP17xT"
      },
      {
        "name": "蘆洲中興店（超市）",
        "address": "247 新北市蘆洲區中興街34、36號",
        "hours": "無",
        "phone": "02-2847-4195、02-2847-4389",
        "fax": "02-2847-3297",
        "coordinates": "25.0870491,121.481136",
        "transportation": "無",
        "parking": "無",
        "accepted_items": "米、麵條、麥片、糖、鹽、料理包、泡麵、牙膏、牙刷、肥皂、毛巾、家用清潔劑、洗衣粉、沐浴乳、洗髮精、抹布、成人奶粉、嬰兒奶粉、罐頭、食用油、醬油調味料、成人紙尿布、嬰兒紙尿布、衛生紙/棉",
        "notes": "列表為建議捐贈品，實際狀況請恰分店人員。",
        "maps_url": "https://maps.apple/p/aesCrs5.GqS.t7"
      },
      {
        "name": "蘆洲光華店（超市）",
        "address": "247 新北市蘆洲區光華路200號",
        "hours": "公車：萬全市場站 橘16，橘17，橘18，藍1",
        "phone": "02-2288-9268",
        "fax": "02-2288-9269",
        "coordinates": "25.0819548,121.464366",
        "transportation": "公車：萬全市場站 橘16，橘17，橘18，藍1",
        "parking": "無",
        "accepted_items": "米、麵條、麥片、糖、鹽、料理包、泡麵、牙膏、牙刷、肥皂、毛巾、家用清潔劑、洗衣粉、沐浴乳、洗髮精、抹布、成人奶粉、嬰兒奶粉、罐頭、食用油、醬油調味料、成人紙尿布、嬰兒紙尿布、衛生紙/棉",
        "notes": "列表為建議捐贈品，實際狀況請恰分店人員。",
        "maps_url": "https://maps.apple/p/Cyu~_3nIMC2d4M"
      },
      {
        "name": "蘆洲長安二店（超市）",
        "address": "247 新北市蘆洲區長安街387號1樓",
        "hours": "無",
        "phone": "02-2848-4041、02-2848-5364",
        "fax": "02-2848-7618",
        "coordinates": "25.0883354,121.4572609",
        "transportation": "無",
        "parking": "無",
        "accepted_items": "米、麵條、麥片、糖、鹽、料理包、泡麵、牙膏、牙刷、肥皂、毛巾、家用清潔劑、洗衣粉、沐浴乳、洗髮精、抹布、成人奶粉、嬰兒奶粉、罐頭、食用油、醬油調味料、成人紙尿布、嬰兒紙尿布、衛生紙/棉",
        "notes": "列表為建議捐贈品，實際狀況請恰分店人員。",
        "maps_url": "https://maps.apple/p/RMDmSoALxHRYpX"
      },
      {
        "name": "蘆洲長榮店（超市）",
        "address": "247 新北市蘆洲區長榮路386號",
        "hours": "無",
        "phone": "02-8282-1005",
        "fax": "02-8282-1095",
        "coordinates": "25.0874407,121.4597847",
        "transportation": "無",
        "parking": "無",
        "accepted_items": "米、麵條、麥片、糖、鹽、料理包、泡麵、牙膏、牙刷、肥皂、毛巾、家用清潔劑、洗衣粉、沐浴乳、洗髮精、抹布、成人奶粉、嬰兒奶粉、罐頭、食用油、醬油調味料、成人紙尿布、嬰兒紙尿布、衛生紙/棉",
        "notes": "列表為建議捐贈品，實際狀況請恰分店人員。",
        "maps_url": "https://maps.apple/p/8SQ4RXN7~~1ThE"
      },
      {
        "name": "五股成泰店（超市）",
        "address": "248 新北市五股區成泰路一段235號之4",
        "hours": "無",
        "phone": "02-2291-5245、02-2291-5275",
        "fax": "02-2291-5476",
        "coordinates": "25.0798189,121.4362676",
        "transportation": "無",
        "parking": "無",
        "accepted_items": "米、麵條、麥片、糖、鹽、料理包、泡麵、牙膏、牙刷、肥皂、毛巾、家用清潔劑、洗衣粉、沐浴乳、洗髮精、抹布、成人奶粉、嬰兒奶粉、罐頭、食用油、醬油調味料、成人紙尿布、嬰兒紙尿布、衛生紙/棉",
        "notes": "列表為建議捐贈品，實際狀況請恰分店人員。",
        "maps_url": "https://maps.apple/p/tUq7o8Z4z2_YjQ"
      },
      {
        "name": "五股成泰二店（超市）",
        "address": "248 新北市五股區成泰路一段6號",
        "hours": "無",
        "phone": "02-2297-4497、02-2297-0425",
        "fax": "02-2297-7649",
        "coordinates": "25.0672768,121.4344225",
        "transportation": "無",
        "parking": "無",
        "accepted_items": "米、麵條、麥片、糖、鹽、料理包、泡麵、牙膏、牙刷、肥皂、毛巾、家用清潔劑、洗衣粉、沐浴乳、洗髮精、抹布、成人奶粉、嬰兒奶粉、罐頭、食用油、醬油調味料、成人紙尿布、嬰兒紙尿布、衛生紙/棉",
        "notes": "列表為建議捐贈品，實際狀況請恰分店人員。",
        "maps_url": "https://maps.apple/p/AmLc6p-hxH1K1P"
      },
      {
        "name": "五股明德店（超市）",
        "address": "248 新北市五股區明德路12巷5號",
        "hours": "無",
        "phone": "02-2293-1485、02-2293-8455",
        "fax": "02-2293-4395",
        "coordinates": "25.0720454,121.4329202",
        "transportation": "無",
        "parking": "無",
        "accepted_items": "米、麵條、麥片、糖、鹽、料理包、泡麵、牙膏、牙刷、肥皂、毛巾、家用清潔劑、洗衣粉、沐浴乳、洗髮精、抹布、成人奶粉、嬰兒奶粉、罐頭、食用油、醬油調味料、成人紙尿布、嬰兒紙尿布、衛生紙/棉",
        "notes": "列表為建議捐贈品，實際狀況請恰分店人員。",
        "maps_url": "https://maps.apple/p/Evb67M5VXq~NJ5"
      },
      {
        "name": "五股西雲店（超市）",
        "address": "248 新北市五股區西雲路169-1號、171號、171-1號",
        "hours": "無",
        "phone": "02-2295-3601、02-2295-1621",
        "fax": "02-2295-2092",
        "coordinates": "25.094964,121.4469012",
        "transportation": "無",
        "parking": "無",
        "accepted_items": "米、麵條、麥片、糖、鹽、料理包、泡麵、牙膏、牙刷、肥皂、毛巾、家用清潔劑、洗衣粉、沐浴乳、洗髮精、抹布、成人奶粉、嬰兒奶粉、罐頭、食用油、醬油調味料、成人紙尿布、嬰兒紙尿布、衛生紙/棉",
        "notes": "列表為建議捐贈品，實際狀況請恰分店人員。",
        "maps_url": "https://maps.apple/p/eqKrHZEoyka2ES"
      },
      {
        "name": "新莊中信店（超市）",
        "address": "248 新北市新莊區中信街72號",
        "hours": "無",
        "phone": "02-2994-5810",
        "fax": "02-2994-5820",
        "coordinates": "25.0518893,121.4484205",
        "transportation": "無",
        "parking": "無",
        "accepted_items": "米、麵條、麥片、糖、鹽、料理包、泡麵、牙膏、牙刷、肥皂、毛巾、家用清潔劑、洗衣粉、沐浴乳、洗髮精、抹布、成人奶粉、嬰兒奶粉、罐頭、食用油、醬油調味料、成人紙尿布、嬰兒紙尿布、衛生紙/棉",
        "notes": "列表為建議捐贈品，實際狀況請恰分店人員。",
        "maps_url": "https://maps.apple/p/LWZ1UTEE63w5em"
      },
      {
        "name": "中平店（量販）",
        "address": "248 新北市新莊區中平路108號B1",
        "hours": "公車：新莊高中站 257，617 步行約5分鐘、中平路站 藍18 步行約2分鐘",
        "phone": "02-8992-5678",
        "fax": "02-2991-9000",
        "coordinates": "25.045922,121.4449371",
        "transportation": "公車：新莊高中站 257，617 步行約5分鐘、中平路站 藍18 步行約2分鐘",
        "parking": "無",
        "accepted_items": "米、麵條、麥片、糖、鹽、料理包、泡麵、牙膏、牙刷、肥皂、毛巾、家用清潔劑、洗衣粉、沐浴乳、洗髮精、抹布、成人奶粉、嬰兒奶粉、罐頭、食用油、醬油調味料、成人紙尿布、嬰兒紙尿布、衛生紙/棉、貓狗飼料和罐頭",
        "notes": "列表為建議捐贈品，實際狀況請恰分店人員。詳情：https://www.carrefour.com.tw/store-info/?store=中平店#tab=info",
        "maps_url": "https://maps.apple/p/EwWQNDVVYHMxoc"
      },
      {
        "name": "新莊中平店（超市）",
        "address": "248 新北市新莊區中平路377巷18、20號",
        "hours": "無",
        "phone": "02-2992-2182",
        "fax": "02-2992-3140",
        "coordinates": "25.0526384,121.4433908",
        "transportation": "無",
        "parking": "無",
        "accepted_items": "米、麵條、麥片、糖、鹽、料理包、泡麵、牙膏、牙刷、肥皂、毛巾、家用清潔劑、洗衣粉、沐浴乳、洗髮精、抹布、成人奶粉、嬰兒奶粉、罐頭、食用油、醬油調味料、成人紙尿布、嬰兒紙尿布、衛生紙/棉",
        "notes": "列表為建議捐贈品，實際狀況請恰分店人員。",
        "maps_url": "https://maps.apple/p/7V4fdpYeHAKqKv"
      },
      {
        "name": "新莊中港店（超市）",
        "address": "248 新北市新莊區中港路336號",
        "hours": "公車：財元廣場 99，299，616，805，820，960，F202，F208，藍18， 步行約2分鐘",
        "phone": "02-2998-5052",
        "fax": "02-2988-5053",
        "coordinates": "25.0456119,121.4523143",
        "transportation": "公車：財元廣場 99，299，616，805，820，960，F202，F208，藍18， 步行約2分鐘",
        "parking": "機車10位。",
        "accepted_items": "米、麵條、麥片、糖、鹽、料理包、泡麵、牙膏、牙刷、肥皂、毛巾、家用清潔劑、洗衣粉、沐浴乳、洗髮精、抹布、成人奶粉、嬰兒奶粉、罐頭、食用油、醬油調味料、成人紙尿布、嬰兒紙尿布、衛生紙/棉",
        "notes": "列表為建議捐贈品，實際狀況請恰分店人員。",
        "maps_url": "https://maps.apple/p/YB-sbBNAILWvkn"
      },
      {
        "name": "新莊公園一店（超市）",
        "address": "248 新北市新莊區公園一路110號",
        "hours": "無",
        "phone": "02-2276-8602、02-2276-8537",
        "fax": "02-2276-5638",
        "coordinates": "25.0377233,121.4443924",
        "transportation": "無",
        "parking": "無",
        "accepted_items": "米、麵條、麥片、糖、鹽、料理包、泡麵、牙膏、牙刷、肥皂、毛巾、家用清潔劑、洗衣粉、沐浴乳、洗髮精、抹布、成人奶粉、嬰兒奶粉、罐頭、食用油、醬油調味料、成人紙尿布、嬰兒紙尿布、衛生紙/棉",
        "notes": "列表為建議捐贈品，實際狀況請恰分店人員。",
        "maps_url": "https://maps.apple/p/hI6qKHkSb8_z9K"
      },
      {
        "name": "新莊公園店（超市）",
        "address": "248 新北市新莊區公園路226號",
        "hours": "無",
        "phone": "02-8994-2178、02-8994-2193",
        "fax": "02-8994-2212",
        "coordinates": "25.0404957,121.4567828",
        "transportation": "無",
        "parking": "汽車9位。30元/小時。",
        "accepted_items": "米、麵條、麥片、糖、鹽、料理包、泡麵、牙膏、牙刷、肥皂、毛巾、家用清潔劑、洗衣粉、沐浴乳、洗髮精、抹布、成人奶粉、嬰兒奶粉、罐頭、食用油、醬油調味料、成人紙尿布、嬰兒紙尿布、衛生紙/棉",
        "notes": "列表為建議捐贈品，實際狀況請恰分店人員。",
        "maps_url": "https://maps.apple/p/zFdzEgx~pX6RqU"
      },
      {
        "name": "新莊化成店（超市）",
        "address": "248 新北市新莊區化成路193號",
        "hours": "無",
        "phone": "02-2990-2980",
        "fax": "02-8991-2717",
        "coordinates": "25.0504959,121.4657844",
        "transportation": "無",
        "parking": "無",
        "accepted_items": "米、麵條、麥片、糖、鹽、料理包、泡麵、牙膏、牙刷、肥皂、毛巾、家用清潔劑、洗衣粉、沐浴乳、洗髮精、抹布、成人奶粉、嬰兒奶粉、罐頭、食用油、醬油調味料、成人紙尿布、嬰兒紙尿布、衛生紙/棉",
        "notes": "列表為建議捐贈品，實際狀況請恰分店人員。",
        "maps_url": "https://maps.apple/p/jw.G~.mMEZFjcz"
      },
      {
        "name": "新莊富國店（超市）",
        "address": "248 新北市新莊區富國路2號B1",
        "hours": "無",
        "phone": "02-2902-6138、02-2902-6139",
        "fax": "02-2902-6132",
        "coordinates": "25.0263693,121.4182063",
        "transportation": "無",
        "parking": "無",
        "accepted_items": "米、麵條、麥片、糖、鹽、料理包、泡麵、牙膏、牙刷、肥皂、毛巾、家用清潔劑、洗衣粉、沐浴乳、洗髮精、抹布、成人奶粉、嬰兒奶粉、罐頭、食用油、醬油調味料、成人紙尿布、嬰兒紙尿布、衛生紙/棉",
        "notes": "列表為建議捐贈品，實際狀況請恰分店人員。",
        "maps_url": "https://maps.apple/p/cBQqNAaHgg.Kyx"
      },
      {
        "name": "新莊後港一店（超市）",
        "address": "248 新北市新莊區後港一路122-126號",
        "hours": "無",
        "phone": "02-2204-8948、02-2204-0349",
        "fax": "02-2204-3654",
        "coordinates": "25.0270873,121.4290905",
        "transportation": "無",
        "parking": "無",
        "accepted_items": "米、麵條、麥片、糖、鹽、料理包、泡麵、牙膏、牙刷、肥皂、毛巾、家用清潔劑、洗衣粉、沐浴乳、洗髮精、抹布、成人奶粉、嬰兒奶粉、罐頭、食用油、醬油調味料、成人紙尿布、嬰兒紙尿布、衛生紙/棉",
        "notes": "列表為建議捐贈品，實際狀況請恰分店人員。",
        "maps_url": "https://maps.apple/p/oXx.uzPT24NUYb"
      },
      {
        "name": "新莊新泰店（超市）",
        "address": "248 新北市新莊區新泰路85號B1",
        "hours": "無",
        "phone": "02-77543199",
        "fax": "無",
        "coordinates": "25.0345006,121.4490699",
        "transportation": "無",
        "parking": "無",
        "accepted_items": "米、麵條、麥片、糖、鹽、料理包、泡麵、牙膏、牙刷、肥皂、毛巾、家用清潔劑、洗衣粉、沐浴乳、洗髮精、抹布、成人奶粉、嬰兒奶粉、罐頭、食用油、醬油調味料、成人紙尿布、嬰兒紙尿布、衛生紙/棉",
        "notes": "列表為建議捐贈品，實際狀況請恰分店人員。",
        "maps_url": "https://maps.apple/p/RSRus8CcyPGHUo"
      },
      {
        "name": "新莊昌隆店（超市）",
        "address": "248 新北市新莊區昌隆街69、75、83號",
        "hours": "無",
        "phone": "02-2992-3404、02-2992-3594",
        "fax": "02-2992-4740",
        "coordinates": "25.0512954,121.457392",
        "transportation": "無",
        "parking": "無",
        "accepted_items": "米、麵條、麥片、糖、鹽、料理包、泡麵、牙膏、牙刷、肥皂、毛巾、家用清潔劑、洗衣粉、沐浴乳、洗髮精、抹布、成人奶粉、嬰兒奶粉、罐頭、食用油、醬油調味料、成人紙尿布、嬰兒紙尿布、衛生紙/棉",
        "notes": "列表為建議捐贈品，實際狀況請恰分店人員。",
        "maps_url": "https://maps.apple/p/s3NhbHPAhkr3SY"
      },
      {
        "name": "新莊民安二店（超市）",
        "address": "248 新北市新莊區民安路179號B1",
        "hours": "無",
        "phone": "02-77288468",
        "fax": "無",
        "coordinates": "25.023134,121.4258627",
        "transportation": "無",
        "parking": "無",
        "accepted_items": "米、麵條、麥片、糖、鹽、料理包、泡麵、牙膏、牙刷、肥皂、毛巾、家用清潔劑、洗衣粉、沐浴乳、洗髮精、抹布、成人奶粉、嬰兒奶粉、罐頭、食用油、醬油調味料、成人紙尿布、嬰兒紙尿布、衛生紙/棉",
        "notes": "列表為建議捐贈品，實際狀況請恰分店人員。",
        "maps_url": "https://maps.apple/p/gh68o7LyY7.Rkx"
      },
      {
        "name": "新莊丹鳳店（超市）",
        "address": "248 新北市新莊區雙鳳路59號",
        "hours": "公車：丹鳳派出所 橘21 橘26 藍37 615 棕線601",
        "phone": "02-2901-5908",
        "fax": "02-2901-5618",
        "coordinates": "25.0273751,121.4151796",
        "transportation": "公車：丹鳳派出所 橘21 橘26 藍37 615 棕線601",
        "parking": "無",
        "accepted_items": "米、麵條、麥片、糖、鹽、料理包、泡麵、牙膏、牙刷、肥皂、毛巾、家用清潔劑、洗衣粉、沐浴乳、洗髮精、抹布、成人奶粉、嬰兒奶粉、罐頭、食用油、醬油調味料、成人紙尿布、嬰兒紙尿布、衛生紙/棉",
        "notes": "列表為建議捐贈品，實際狀況請恰分店人員。",
        "maps_url": "https://maps.apple/p/5ZfHyGTuC5yEd8"
      },
      {
        "name": "新莊龍安店（超市）",
        "address": "248 新北市新莊區龍安路75號",
        "hours": "無",
        "phone": "02-2904-0032、02-2904-0035",
        "fax": "02-2904-0037",
        "coordinates": "25.0215055,121.4158529",
        "transportation": "無",
        "parking": "無",
        "accepted_items": "米、麵條、麥片、糖、鹽、料理包、泡麵、牙膏、牙刷、肥皂、毛巾、家用清潔劑、洗衣粉、沐浴乳、洗髮精、抹布、成人奶粉、嬰兒奶粉、罐頭、食用油、醬油調味料、成人紙尿布、嬰兒紙尿布、衛生紙/棉",
        "notes": "列表為建議捐贈品，實際狀況請恰分店人員。",
        "maps_url": "https://maps.apple/p/R4vnkvGos84dG_"
      },
      {
        "name": "八里商港店（超市）",
        "address": "249 新北市八里區商港七路21號1樓",
        "hours": "無",
        "phone": "02-2610-0959",
        "fax": "02-2610-0959#117",
        "coordinates": "25.1481524,121.3989246",
        "transportation": "無",
        "parking": "機車20位。",
        "accepted_items": "米、麵條、麥片、糖、鹽、料理包、泡麵、牙膏、牙刷、肥皂、毛巾、家用清潔劑、洗衣粉、沐浴乳、洗髮精、抹布、成人奶粉、嬰兒奶粉、罐頭、食用油、醬油調味料、成人紙尿布、嬰兒紙尿布、衛生紙/棉",
        "notes": "列表為建議捐贈品，實際狀況請恰分店人員。",
        "maps_url": "https://maps.apple/p/on48CnGSUQWCxB"
      },
      {
        "name": "淡水中山北店（超市）",
        "address": "251 新北市淡水區中山北路一段156號",
        "hours": "無",
        "phone": "02-2621-5450、02-2621-5475",
        "fax": "02-2628-2457",
        "coordinates": "25.1778252,121.4439009",
        "transportation": "無",
        "parking": "無",
        "accepted_items": "米、麵條、麥片、糖、鹽、料理包、泡麵、牙膏、牙刷、肥皂、毛巾、家用清潔劑、洗衣粉、沐浴乳、洗髮精、抹布、成人奶粉、嬰兒奶粉、罐頭、食用油、醬油調味料、成人紙尿布、嬰兒紙尿布、衛生紙/棉",
        "notes": "列表為建議捐贈品，實際狀況請恰分店人員。",
        "maps_url": "https://maps.apple/p/eRQVxrmne2_~T4"
      },
      {
        "name": "淡新店（量販）",
        "address": "251 新北市淡水區中山北路二段383號",
        "hours": "公車：中山濱海路口 862，863，865，867，871，872，873，874，892，881；捷運：中山濱海路口；輕軌：行政中心",
        "phone": "02-8631-8880",
        "fax": "02-8631-8890",
        "coordinates": "25.1880161,121.4434273",
        "transportation": "公車：中山濱海路口 862，863，865，867，871，872，873，874，892，881；捷運：中山濱海路口；輕軌：行政中心",
        "parking": "汽車387位、機車179位、殘障4位、親子3位。",
        "accepted_items": "米、麵條、麥片、糖、鹽、料理包、泡麵、牙膏、牙刷、肥皂、毛巾、家用清潔劑、洗衣粉、沐浴乳、洗髮精、抹布、成人奶粉、嬰兒奶粉、罐頭、食用油、醬油調味料、成人紙尿布、嬰兒紙尿布、衛生紙/棉、貓狗飼料和罐頭",
        "notes": "列表為建議捐贈品，實際狀況請恰分店人員。詳情：https://www.carrefour.com.tw/store-info/?store=淡新店#tab=info",
        "maps_url": "https://maps.apple/p/7BLB3iALoE34fr"
      },
      {
        "name": "淡水民權店（超市）",
        "address": "251 新北市淡水區民權路177巷12、16、18、20號",
        "hours": "無",
        "phone": "02-7754-2170",
        "fax": "02-2808-5363",
        "coordinates": "25.1350391,121.4605394",
        "transportation": "無",
        "parking": "無",
        "accepted_items": "米、麵條、麥片、糖、鹽、料理包、泡麵、牙膏、牙刷、肥皂、毛巾、家用清潔劑、洗衣粉、沐浴乳、洗髮精、抹布、成人奶粉、嬰兒奶粉、罐頭、食用油、醬油調味料、成人紙尿布、嬰兒紙尿布、衛生紙/棉",
        "notes": "列表為建議捐贈品，實際狀況請恰分店人員。",
        "maps_url": "https://maps.apple/p/RvQD5PdeY6LSZR"
      },
      {
        "name": "淡水沙崙店（超市）",
        "address": "251 新北市淡水區沙崙路168號",
        "hours": "無",
        "phone": "02-2805-2174、02-2805-2294",
        "fax": "02-2805-2354",
        "coordinates": "25.1834014,121.4240352",
        "transportation": "無",
        "parking": "無",
        "accepted_items": "米、麵條、麥片、糖、鹽、料理包、泡麵、牙膏、牙刷、肥皂、毛巾、家用清潔劑、洗衣粉、沐浴乳、洗髮精、抹布、成人奶粉、嬰兒奶粉、罐頭、食用油、醬油調味料、成人紙尿布、嬰兒紙尿布、衛生紙/棉",
        "notes": "列表為建議捐贈品，實際狀況請恰分店人員。",
        "maps_url": "https://maps.apple/p/v3LpHi7I6PEchv"
      },
      {
        "name": "宜蘭店（量販）",
        "address": "260 宜蘭縣宜蘭市民權路二段38巷2號B2",
        "hours": "公車：中山公園站 國光客運",
        "phone": "03-936-1188",
        "fax": "03-931-5633",
        "coordinates": "24.7539788,121.7503205",
        "transportation": "公車：中山公園站 國光客運",
        "parking": "汽車1000位、機車1100位、殘障20位。購物即免費停2小時。",
        "accepted_items": "米、麵條、麥片、糖、鹽、料理包、泡麵、牙膏、牙刷、肥皂、毛巾、家用清潔劑、洗衣粉、沐浴乳、洗髮精、抹布、成人奶粉、嬰兒奶粉、罐頭、食用油、醬油調味料、成人紙尿布、嬰兒紙尿布、衛生紙/棉",
        "notes": "列表為建議捐贈品，實際狀況請恰分店人員。詳情：https://www.carrefour.com.tw/store-info/?store=淡新店#tab=info",
        "maps_url": "https://maps.apple/p/CUkyPbFh6.ecIi"
      },
      {
        "name": "新竹北大店（超市）",
        "address": "300 新竹市北區北大路338號1樓",
        "hours": "無",
        "phone": "03-524-6333",
        "fax": "03-524-1447",
        "coordinates": "24.8061307,120.961914",
        "transportation": "無",
        "parking": "無",
        "accepted_items": "米、麵條、麥片、糖、鹽、料理包、泡麵、牙膏、牙刷、肥皂、毛巾、家用清潔劑、洗衣粉、沐浴乳、洗髮精、抹布、成人奶粉、嬰兒奶粉、罐頭、食用油、醬油調味料、成人紙尿布、嬰兒紙尿布、衛生紙/棉",
        "notes": "列表為建議捐贈品，實際狀況請恰分店人員。",
        "maps_url": "https://maps.apple/p/pCQzR18fg~gZ8t"
      },
      {
        "name": "新竹南大店（超市）",
        "address": "300 新竹市東區南大路286號",
        "hours": "公車：陽明清境 72路",
        "phone": "03-561-7768",
        "fax": "03-561-7708",
        "coordinates": "24.7992397,120.9721734",
        "transportation": "公車：陽明清境 72路",
        "parking": "機車10位。",
        "accepted_items": "米、麵條、麥片、糖、鹽、料理包、泡麵、牙膏、牙刷、肥皂、毛巾、家用清潔劑、洗衣粉、沐浴乳、洗髮精、抹布、成人奶粉、嬰兒奶粉、罐頭、食用油、醬油調味料、成人紙尿布、嬰兒紙尿布、衛生紙/棉",
        "notes": "列表為建議捐贈品，實際狀況請恰分店人員。",
        "maps_url": "https://maps.apple/p/dK1MTW-0PcMB5Q"
      },
      {
        "name": "新竹建中店（超市）",
        "address": "300 新竹市東區建中路42號、46號",
        "hours": "無",
        "phone": "03-573-8716、03-573-8720",
        "fax": "03-573-8726",
        "coordinates": "24.8012304,120.9950872",
        "transportation": "無",
        "parking": "無",
        "accepted_items": "米、麵條、麥片、糖、鹽、料理包、泡麵、牙膏、牙刷、肥皂、毛巾、家用清潔劑、洗衣粉、沐浴乳、洗髮精、抹布、成人奶粉、嬰兒奶粉、罐頭、食用油、醬油調味料、成人紙尿布、嬰兒紙尿布、衛生紙/棉",
        "notes": "列表為建議捐贈品，實際狀況請恰分店人員。",
        "maps_url": "https://maps.apple/p/RupXme8xY2~s.N"
      },
      {
        "name": "新竹振興店（超市）",
        "address": "300 新竹市東區振興路62號及68號",
        "hours": "無",
        "phone": "03-562-1446",
        "fax": "03-562-0809",
        "coordinates": "24.7949993,120.9621596",
        "transportation": "無",
        "parking": "無",
        "accepted_items": "米、麵條、麥片、糖、鹽、料理包、泡麵、牙膏、牙刷、肥皂、毛巾、家用清潔劑、洗衣粉、沐浴乳、洗髮精、抹布、成人奶粉、嬰兒奶粉、罐頭、食用油、醬油調味料、成人紙尿布、嬰兒紙尿布、衛生紙/棉",
        "notes": "列表為建議捐贈品，實際狀況請恰分店人員。",
        "maps_url": "https://maps.apple/p/yidQqmx0hFshp4"
      },
      {
        "name": "新竹明湖店（超市）",
        "address": "300 新竹市東區明湖路566號",
        "hours": "無",
        "phone": "03-520-5842、03-520-5843",
        "fax": "03-520-5845",
        "coordinates": "24.7773684,120.9670591",
        "transportation": "無",
        "parking": "無",
        "accepted_items": "米、麵條、麥片、糖、鹽、料理包、泡麵、牙膏、牙刷、肥皂、毛巾、家用清潔劑、洗衣粉、沐浴乳、洗髮精、抹布、成人奶粉、嬰兒奶粉、罐頭、食用油、醬油調味料、成人紙尿布、嬰兒紙尿布、衛生紙/棉",
        "notes": "列表為建議捐贈品，實際狀況請恰分店人員。",
        "maps_url": "https://maps.apple/p/efEUkC~~hpzjkc"
      },
      {
        "name": "新竹金山店（超市）",
        "address": "300 新竹市東區金山街30號",
        "hours": "無",
        "phone": "03-567-9001、03-567-9792",
        "fax": "03-567-0646",
        "coordinates": "24.7775215,121.0212152",
        "transportation": "無",
        "parking": "無",
        "accepted_items": "米、麵條、麥片、糖、鹽、料理包、泡麵、牙膏、牙刷、肥皂、毛巾、家用清潔劑、洗衣粉、沐浴乳、洗髮精、抹布、成人奶粉、嬰兒奶粉、罐頭、食用油、醬油調味料、成人紙尿布、嬰兒紙尿布、衛生紙/棉",
        "notes": "列表為建議捐贈品，實際狀況請恰分店人員。",
        "maps_url": "https://maps.apple/p/H-gt_JaNFGYdyr"
      },
      {
        "name": "新竹長春店（超市）",
        "address": "300 新竹市東區長春街56號",
        "hours": "無",
        "phone": "03-579-7088、03-579-8283",
        "fax": "03-579-0958",
        "coordinates": "24.7857948,121.0147771",
        "transportation": "無",
        "parking": "無",
        "accepted_items": "米、麵條、麥片、糖、鹽、料理包、泡麵、牙膏、牙刷、肥皂、毛巾、家用清潔劑、洗衣粉、沐浴乳、洗髮精、抹布、成人奶粉、嬰兒奶粉、罐頭、食用油、醬油調味料、成人紙尿布、嬰兒紙尿布、衛生紙/棉",
        "notes": "列表為建議捐贈品，實際狀況請恰分店人員。",
        "maps_url": "https://maps.apple/p/K8HQA59Zg9odR4"
      },
      {
        "name": "竹北中正東店（超市）",
        "address": "302 新竹縣竹北市中正東路71號",
        "hours": "無",
        "phone": "03-553-2329~30",
        "fax": "03-553-2331",
        "coordinates": "24.8349097,121.0179951",
        "transportation": "無",
        "parking": "無",
        "accepted_items": "米、麵條、麥片、糖、鹽、料理包、泡麵、牙膏、牙刷、肥皂、毛巾、家用清潔劑、洗衣粉、沐浴乳、洗髮精、抹布、成人奶粉、嬰兒奶粉、罐頭、食用油、醬油調味料、成人紙尿布、嬰兒紙尿布、衛生紙/棉",
        "notes": "列表為建議捐贈品，實際狀況請恰分店人員。",
        "maps_url": "https://maps.apple/p/4Tku5m2BwBuA7Y"
      },
      {
        "name": "竹北六家店（超市）",
        "address": "302 新竹縣竹北市六家五路一段133號",
        "hours": "無",
        "phone": "03-667-3304、03-667-3394",
        "fax": "03-667-3204",
        "coordinates": "24.8095129,121.0256128",
        "transportation": "無",
        "parking": "無",
        "accepted_items": "米、麵條、麥片、糖、鹽、料理包、泡麵、牙膏、牙刷、肥皂、毛巾、家用清潔劑、洗衣粉、沐浴乳、洗髮精、抹布、成人奶粉、嬰兒奶粉、罐頭、食用油、醬油調味料、成人紙尿布、嬰兒紙尿布、衛生紙/棉",
        "notes": "列表為建議捐贈品，實際狀況請恰分店人員。",
        "maps_url": "https://maps.apple/p/LRUcpLi6BTq17k"
      },
      {
        "name": "竹北勝利二店（超市）",
        "address": "302 新竹縣竹北市勝利二路26號",
        "hours": "無",
        "phone": "03-658-5344",
        "fax": "03-658-5754",
        "coordinates": "24.8230383,121.0247631",
        "transportation": "無",
        "parking": "無",
        "accepted_items": "米、麵條、麥片、糖、鹽、料理包、泡麵、牙膏、牙刷、肥皂、毛巾、家用清潔劑、洗衣粉、沐浴乳、洗髮精、抹布、成人奶粉、嬰兒奶粉、罐頭、食用油、醬油調味料、成人紙尿布、嬰兒紙尿布、衛生紙/棉",
        "notes": "列表為建議捐贈品，實際狀況請恰分店人員。",
        "maps_url": "https://maps.apple/p/c0bf.8h6uM9.A_"
      },
      {
        "name": "竹北成功店（超市）",
        "address": "302 新竹縣竹北市成功八路158號",
        "hours": "無",
        "phone": "03-657-6629、03-657-6653",
        "fax": "03-657-7390",
        "coordinates": "24.8178351,121.0176407",
        "transportation": "無",
        "parking": "無",
        "accepted_items": "米、麵條、麥片、糖、鹽、料理包、泡麵、牙膏、牙刷、肥皂、毛巾、家用清潔劑、洗衣粉、沐浴乳、洗髮精、抹布、成人奶粉、嬰兒奶粉、罐頭、食用油、醬油調味料、成人紙尿布、嬰兒紙尿布、衛生紙/棉",
        "notes": "列表為建議捐贈品，實際狀況請恰分店人員。",
        "maps_url": "https://maps.apple/p/yNm7qPwDjwnEP~"
      },
      {
        "name": "竹北縣政二店（超市）",
        "address": "302 新竹縣竹北市縣政二路南段56號",
        "hours": "無",
        "phone": "03-558-3843",
        "fax": "03-558-3846",
        "coordinates": "24.8197267,121.0121172",
        "transportation": "無",
        "parking": "無",
        "accepted_items": "米、麵條、麥片、糖、鹽、料理包、泡麵、牙膏、牙刷、肥皂、毛巾、家用清潔劑、洗衣粉、沐浴乳、洗髮精、抹布、成人奶粉、嬰兒奶粉、罐頭、食用油、醬油調味料、成人紙尿布、嬰兒紙尿布、衛生紙/棉",
        "notes": "列表為建議捐贈品，實際狀況請恰分店人員。",
        "maps_url": "https://maps.apple/p/chDQG02pL0iHVj"
      },
      {
        "name": "竹北華興店（超市）",
        "address": "302 新竹縣竹北市華興街135號1F",
        "hours": "無",
        "phone": "03-554-5015~3",
        "fax": "03-554-5309",
        "coordinates": "24.8402677,121.0030583",
        "transportation": "無",
        "parking": "無",
        "accepted_items": "米、麵條、麥片、糖、鹽、料理包、泡麵、牙膏、牙刷、肥皂、毛巾、家用清潔劑、洗衣粉、沐浴乳、洗髮精、抹布、成人奶粉、嬰兒奶粉、罐頭、食用油、醬油調味料、成人紙尿布、嬰兒紙尿布、衛生紙/棉",
        "notes": "列表為建議捐贈品，實際狀況請恰分店人員。",
        "maps_url": "https://maps.apple/p/oWXsw3~nrC2Aab"
      },
      {
        "name": "新豐建興店（超市）",
        "address": "304 新竹縣新豐鄉建興路一段116-2號",
        "hours": "無",
        "phone": "03-557-2047、03-557-2497",
        "fax": "03-557-7342",
        "coordinates": "24.8725509,120.9950878",
        "transportation": "無",
        "parking": "無",
        "accepted_items": "米、麵條、麥片、糖、鹽、料理包、泡麵、牙膏、牙刷、肥皂、毛巾、家用清潔劑、洗衣粉、沐浴乳、洗髮精、抹布、成人奶粉、嬰兒奶粉、罐頭、食用油、醬油調味料、成人紙尿布、嬰兒紙尿布、衛生紙/棉",
        "notes": "列表為建議捐贈品，實際狀況請恰分店人員。",
        "maps_url": "https://maps.apple/p/uCyJoZZYhsKIEG"
      },
      {
        "name": "關西中興店（超市）",
        "address": "306 新竹縣關西鎮中興路19號",
        "hours": "無",
        "phone": "03-587-7931、03-587-7943",
        "fax": "03-587-6950",
        "coordinates": "24.7927213,121.1768662",
        "transportation": "無",
        "parking": "無",
        "accepted_items": "米、麵條、麥片、糖、鹽、料理包、泡麵、牙膏、牙刷、肥皂、毛巾、家用清潔劑、洗衣粉、沐浴乳、洗髮精、抹布、成人奶粉、嬰兒奶粉、罐頭、食用油、醬油調味料、成人紙尿布、嬰兒紙尿布、衛生紙/棉",
        "notes": "列表為建議捐贈品，實際狀況請恰分店人員。",
        "maps_url": "https://maps.apple/p/qzL0QXxgpDoaC2"
      },
      {
        "name": "竹東民德店（超市）",
        "address": "310 新竹縣竹東鎮民德路64號1樓",
        "hours": "無",
        "phone": "03-596-3919~20",
        "fax": "03-596-3921",
        "coordinates": "24.744321,121.0844452",
        "transportation": "無",
        "parking": "無",
        "accepted_items": "米、麵條、麥片、糖、鹽、料理包、泡麵、牙膏、牙刷、肥皂、毛巾、家用清潔劑、洗衣粉、沐浴乳、洗髮精、抹布、成人奶粉、嬰兒奶粉、罐頭、食用油、醬油調味料、成人紙尿布、嬰兒紙尿布、衛生紙/棉",
        "notes": "列表為建議捐贈品，實際狀況請恰分店人員。",
        "maps_url": "https://maps.apple/p/WnJUq667p1YjRR"
      },
      {
        "name": "中壢中北店（超市）",
        "address": "320 桃園市中壢區中北路111號",
        "hours": "公車：中原國小站 桃園客運155，156線",
        "phone": "03-416-2176",
        "fax": "03-416-2179",
        "coordinates": "24.9566154,121.2384242",
        "transportation": "公車：中原國小站 桃園客運155，156線",
        "parking": "無",
        "accepted_items": "米、麵條、麥片、糖、鹽、料理包、泡麵、牙膏、牙刷、肥皂、毛巾、家用清潔劑、洗衣粉、沐浴乳、洗髮精、抹布、成人奶粉、嬰兒奶粉、罐頭、食用油、醬油調味料、成人紙尿布、嬰兒紙尿布、衛生紙/棉",
        "notes": "列表為建議捐贈品，實際狀況請恰分店人員。",
        "maps_url": "https://maps.apple/p/k66k-XicC_qag4"
      },
      {
        "name": "中壢店（量販）",
        "address": "320 桃園市中壢區中山東路二段510號",
        "hours": "公車：金鋒市場 中壢客運112",
        "phone": "0800-688-388",
        "fax": "03-437-8177",
        "coordinates": "24.947258,121.2445156",
        "transportation": "公車：金鋒市場 中壢客運112",
        "parking": "汽車720位、殘障16位、親子21位。平日40元/小時。",
        "accepted_items": "米、麵條、麥片、糖、鹽、料理包、泡麵、牙膏、牙刷、肥皂、毛巾、家用清潔劑、洗衣粉、沐浴乳、洗髮精、抹布、成人奶粉、嬰兒奶粉、罐頭、食用油、醬油調味料、成人紙尿布、嬰兒紙尿布、衛生紙/棉、貓狗飼料和罐頭",
        "notes": "列表為建議捐贈品，實際狀況請恰分店人員。詳情：https://www.carrefour.com.tw/store-info/?store=中壢店#tab=info",
        "maps_url": "https://maps.apple/p/qE1.rZ6T0fj_Zi"
      },
      {
        "name": "內壢店（量販）",
        "address": "320 桃園市中壢區中華路一段450號",
        "hours": "公車：日月光站 桃園客運1路",
        "phone": "03-452-6000",
        "fax": "03-452-0078",
        "coordinates": "24.9721074,121.2535399",
        "transportation": "公車：日月光站 桃園客運1路",
        "parking": "汽車750位、殘障12位、親子8位。平日40元/小時。",
        "accepted_items": "米、麵條、麥片、糖、鹽、料理包、泡麵、牙膏、牙刷、肥皂、毛巾、家用清潔劑、洗衣粉、沐浴乳、洗髮精、抹布、成人奶粉、嬰兒奶粉、罐頭、食用油、醬油調味料、成人紙尿布、嬰兒紙尿布、衛生紙/棉、貓狗飼料和罐頭",
        "notes": "列表為建議捐贈品，實際狀況請恰分店人員。詳情：https://www.carrefour.com.tw/store-info/?store=內壢店#tab=info",
        "maps_url": "https://maps.apple/p/eL8ECwi2_9zb0V"
      },
      {
        "name": "中原店（量販）",
        "address": "320 桃園市中壢區中華路二段501號",
        "hours": "無",
        "phone": "0800-200-359",
        "fax": "03-433-4644",
        "coordinates": "24.9624929,121.2320448",
        "transportation": "無",
        "parking": "汽車682位、殘障12位、親子17位。平日40元/小時。",
        "accepted_items": "米、麵條、麥片、糖、鹽、料理包、泡麵、牙膏、牙刷、肥皂、毛巾、家用清潔劑、洗衣粉、沐浴乳、洗髮精、抹布、成人奶粉、嬰兒奶粉、罐頭、食用油、醬油調味料、成人紙尿布、嬰兒紙尿布、衛生紙/棉、貓狗飼料和罐頭",
        "notes": "列表為建議捐贈品，實際狀況請恰分店人員。詳情：https://www.carrefour.com.tw/store-info/?store=中原店#tab=info",
        "maps_url": "https://maps.apple/p/o7q3MZxFber.fz"
      },
      {
        "name": "中壢成章1店（超市）",
        "address": "320 桃園市中壢區成章一街88號",
        "hours": "公車：龍文街口 L203",
        "phone": "03-453-5379",
        "fax": "03-453-5160",
        "coordinates": "24.9768572,121.2580019",
        "transportation": "公車：龍文街口 L203",
        "parking": "機車20位。",
        "accepted_items": "米、麵條、麥片、糖、鹽、料理包、泡麵、牙膏、牙刷、肥皂、毛巾、家用清潔劑、洗衣粉、沐浴乳、洗髮精、抹布、成人奶粉、嬰兒奶粉、罐頭、食用油、醬油調味料、成人紙尿布、嬰兒紙尿布、衛生紙/棉",
        "notes": "列表為建議捐贈品，實際狀況請恰分店人員。",
        "maps_url": "https://maps.apple/p/1PRaTnMd1wxzx.z"
      },
      {
        "name": "中壢環北店（超市）",
        "address": "320 桃園市中壢區環北路392號",
        "hours": "無",
        "phone": "03-427-4485、03-427-4486",
        "fax": "03-427-4487",
        "coordinates": "24.9654925,121.2260015",
        "transportation": "無",
        "parking": "無",
        "accepted_items": "米、麵條、麥片、糖、鹽、料理包、泡麵、牙膏、牙刷、肥皂、毛巾、家用清潔劑、洗衣粉、沐浴乳、洗髮精、抹布、成人奶粉、嬰兒奶粉、罐頭、食用油、醬油調味料、成人紙尿布、嬰兒紙尿布、衛生紙/棉",
        "notes": "列表為建議捐贈品，實際狀況請恰分店人員。",
        "maps_url": "https://maps.apple/p/HLQQUB__IQ7vJq"
      },
      {
        "name": "青埔店（量販）",
        "address": "320 桃園市中壢區高鐵南路2段352號2樓",
        "hours": "公車：桃園體育園區站 132A，172，707A，5081，L206，L207，L605；機捷：A19桃園體育園區站；高鐵：桃園站 沿高鐵南路台31線 往南步行約2公里可達 或 往環北方向桃園捷運 A19桃園體育園區站",
        "phone": "03-2876-020",
        "fax": "03-2876-021",
        "coordinates": "25.0018916,121.2026178",
        "transportation": "公車：桃園體育園區站 132A，172，707A，5081，L206，L207，L605；機捷：A19桃園體育園區站；高鐵：桃園站 沿高鐵南路台31線 往南步行約2公里可達 或 往環北方向桃園捷運 A19桃園體育園區站",
        "parking": "汽車440位、機車330位、殘障10位、親子13位。",
        "accepted_items": "米、麵條、麥片、糖、鹽、料理包、泡麵、牙膏、牙刷、肥皂、毛巾、家用清潔劑、洗衣粉、沐浴乳、洗髮精、抹布、成人奶粉、嬰兒奶粉、罐頭、食用油、醬油調味料、成人紙尿布、嬰兒紙尿布、衛生紙/棉、貓狗飼料和罐頭",
        "notes": "列表為建議捐贈品，實際狀況請恰分店人員。詳情：https://www.carrefour.com.tw/store-info/?store=青埔店#tab=info",
        "maps_url": "https://maps.apple/p/8FN1KF-J.n9ImA"
      },
      {
        "name": "平鎮店（量販）",
        "address": "324 桃園市平鎮區坤慶路1號",
        "hours": "公車：桃園客運及新竹客運至莊敬站或華夏山莊站下車",
        "phone": "03-469-0288",
        "fax": "無",
        "coordinates": "24.9022449,121.2127573",
        "transportation": "公車：桃園客運及新竹客運至莊敬站或華夏山莊站下車",
        "parking": "汽車369位、殘障8位、親子10位。平日15元/半小時。",
        "accepted_items": "米、麵條、麥片、糖、鹽、料理包、泡麵、牙膏、牙刷、肥皂、毛巾、家用清潔劑、洗衣粉、沐浴乳、洗髮精、抹布、成人奶粉、嬰兒奶粉、罐頭、食用油、醬油調味料、成人紙尿布、嬰兒紙尿布、衛生紙/棉、貓狗飼料和罐頭",
        "notes": "列表為建議捐贈品，實際狀況請恰分店人員。詳情：https://www.carrefour.com.tw/store-info/?store=平鎮店#tab=info",
        "maps_url": "https://maps.apple/p/BTnr4~-Ay0jJSp"
      },
      {
        "name": "平鎮廣明店（超市）",
        "address": "324 桃園市平鎮區廣明路1號",
        "hours": "無",
        "phone": "03-493-1438、03-493-1483",
        "fax": "03-493-3500",
        "coordinates": "24.9525028,121.2146292",
        "transportation": "無",
        "parking": "無",
        "accepted_items": "米、麵條、麥片、糖、鹽、料理包、泡麵、牙膏、牙刷、肥皂、毛巾、家用清潔劑、洗衣粉、沐浴乳、洗髮精、抹布、成人奶粉、嬰兒奶粉、罐頭、食用油、醬油調味料、成人紙尿布、嬰兒紙尿布、衛生紙/棉",
        "notes": "列表為建議捐贈品，實際狀況請恰分店人員。",
        "maps_url": "https://maps.apple/p/EfUPWvwaDQj8UP"
      },
      {
        "name": "平鎮文化店（超市）",
        "address": "324 桃園市平鎮區文化街102號",
        "hours": "無",
        "phone": "03-281-2047、03-281-2438",
        "fax": "03-281-3480",
        "coordinates": "24.9531599,121.2030338",
        "transportation": "無",
        "parking": "無",
        "accepted_items": "米、麵條、麥片、糖、鹽、料理包、泡麵、牙膏、牙刷、肥皂、毛巾、家用清潔劑、洗衣粉、沐浴乳、洗髮精、抹布、成人奶粉、嬰兒奶粉、罐頭、食用油、醬油調味料、成人紙尿布、嬰兒紙尿布、衛生紙/棉",
        "notes": "列表為建議捐贈品，實際狀況請恰分店人員。",
        "maps_url": "https://maps.apple/p/tXA.3wQR7ui7hh"
      },
      {
        "name": "楊梅中興店（超市）",
        "address": "326 桃園市楊梅區中興路67號1樓",
        "hours": "無",
        "phone": "03-481-2599、03-481-3637",
        "fax": "03-481-3505",
        "coordinates": "24.9179766,121.1847102",
        "transportation": "無",
        "parking": "無",
        "accepted_items": "米、麵條、麥片、糖、鹽、料理包、泡麵、牙膏、牙刷、肥皂、毛巾、家用清潔劑、洗衣粉、沐浴乳、洗髮精、抹布、成人奶粉、嬰兒奶粉、罐頭、食用油、醬油調味料、成人紙尿布、嬰兒紙尿布、衛生紙/棉",
        "notes": "列表為建議捐贈品，實際狀況請恰分店人員。",
        "maps_url": "https://maps.apple/p/q0IYXCEZrsVCqP"
      },
      {
        "name": "桃園中埔六店（超市）",
        "address": "330 桃園市桃園區中埔六街127號",
        "hours": "無",
        "phone": "03-346-8555、03-346-6449",
        "fax": "無",
        "coordinates": "25.0179256,121.2952102",
        "transportation": "無",
        "parking": "無",
        "accepted_items": "米、麵條、麥片、糖、鹽、料理包、泡麵、牙膏、牙刷、肥皂、毛巾、家用清潔劑、洗衣粉、沐浴乳、洗髮精、抹布、成人奶粉、嬰兒奶粉、罐頭、食用油、醬油調味料、成人紙尿布、嬰兒紙尿布、衛生紙/棉",
        "notes": "列表為建議捐贈品，實際狀況請恰分店人員。",
        "maps_url": "https://maps.apple/p/k6Qv.XZhmNwfeQ"
      },
      {
        "name": "桃園南平店（超市）",
        "address": "330 桃園市桃園區南平路168號",
        "hours": "公車：南平同安街口 168 統聯客運，9005 桃園客運，707A 桃園客運，707 桃園客運",
        "phone": "03-316-3799",
        "fax": "03-316-3779",
        "coordinates": "25.0198634,121.3020121",
        "transportation": "公車：南平同安街口 168 統聯客運，9005 桃園客運，707A 桃園客運，707 桃園客運",
        "parking": "機車20位、殘障1位。",
        "accepted_items": "米、麵條、麥片、糖、鹽、料理包、泡麵、牙膏、牙刷、肥皂、毛巾、家用清潔劑、洗衣粉、沐浴乳、洗髮精、抹布、成人奶粉、嬰兒奶粉、罐頭、食用油、醬油調味料、成人紙尿布、嬰兒紙尿布、衛生紙/棉",
        "notes": "列表為建議捐贈品，實際狀況請恰分店人員。",
        "maps_url": "https://maps.apple/p/bHuX-paX2~WA1A"
      },
      {
        "name": "桃園南華店（超市）",
        "address": "330 桃園市桃園區南華街77號1樓",
        "hours": "無",
        "phone": "03-347-9001、03-347-5491",
        "fax": "03-347-6923",
        "coordinates": "24.9910365,121.3080801",
        "transportation": "無",
        "parking": "無",
        "accepted_items": "米、麵條、麥片、糖、鹽、料理包、泡麵、牙膏、牙刷、肥皂、毛巾、家用清潔劑、洗衣粉、沐浴乳、洗髮精、抹布、成人奶粉、嬰兒奶粉、罐頭、食用油、醬油調味料、成人紙尿布、嬰兒紙尿布、衛生紙/棉",
        "notes": "列表為建議捐贈品，實際狀況請恰分店人員。",
        "maps_url": "https://maps.apple/p/vKx.91WrfHJ9GS"
      },
      {
        "name": "桃園國際店（超市）",
        "address": "330 桃園市桃園區國際路一段1169號",
        "hours": "無",
        "phone": "03-344-1500、03-344-1501",
        "fax": "03-344-1520",
        "coordinates": "24.9886571,121.2888623",
        "transportation": "無",
        "parking": "無",
        "accepted_items": "米、麵條、麥片、糖、鹽、料理包、泡麵、牙膏、牙刷、肥皂、毛巾、家用清潔劑、洗衣粉、沐浴乳、洗髮精、抹布、成人奶粉、嬰兒奶粉、罐頭、食用油、醬油調味料、成人紙尿布、嬰兒紙尿布、衛生紙/棉",
        "notes": "列表為建議捐贈品，實際狀況請恰分店人員。",
        "maps_url": "https://maps.apple/p/H8MTVtb4Sr~QL0"
      },
      {
        "name": "桃園壽昌店（超市）",
        "address": "330 桃園市桃園區壽昌街20巷17號",
        "hours": "無",
        "phone": "03-220-4545、03-220-3710",
        "fax": "03-220-3657",
        "coordinates": "24.9901402,121.2934878",
        "transportation": "無",
        "parking": "無",
        "accepted_items": "米、麵條、麥片、糖、鹽、料理包、泡麵、牙膏、牙刷、肥皂、毛巾、家用清潔劑、洗衣粉、沐浴乳、洗髮精、抹布、成人奶粉、嬰兒奶粉、罐頭、食用油、醬油調味料、成人紙尿布、嬰兒紙尿布、衛生紙/棉",
        "notes": "列表為建議捐贈品，實際狀況請恰分店人員。",
        "maps_url": "https://maps.apple/p/NwXJ2TfvXb.6BL"
      },
      {
        "name": "桃園大興西店（超市）",
        "address": "330 桃園市桃園區大興西路二段63號、65號",
        "hours": "無",
        "phone": "03-302-6997、03-302-6975",
        "fax": "03-302-8239",
        "coordinates": "25.0113736,121.298716",
        "transportation": "無",
        "parking": "無",
        "accepted_items": "米、麵條、麥片、糖、鹽、料理包、泡麵、牙膏、牙刷、肥皂、毛巾、家用清潔劑、洗衣粉、沐浴乳、洗髮精、抹布、成人奶粉、嬰兒奶粉、罐頭、食用油、醬油調味料、成人紙尿布、嬰兒紙尿布、衛生紙/棉",
        "notes": "列表為建議捐贈品，實際狀況請恰分店人員。",
        "maps_url": "https://maps.apple/p/~RnwjD9TYaaV2K"
      },
      {
        "name": "桃園大興店（超市）",
        "address": "330 桃園市桃園區大興路1號",
        "hours": "公車：5021 桃園客運 大興路口站(桃園-下海湖) 5014 桃園客運 大興路口站(桃園-南崁 經南祥路) 5073 桃園客運 大興路口站 (桃園-頂社) 5016 桃園客運 大興路口站 (桃園-竹南 經山腳) 5069 桃園客運 大興路口站 (桃園-醒吾中學 經赤塗崎) 5015 桃園客運 大興路口站 (桃園-大園 經南崁) 5022 桃園客運 大興路口站 (桃園-沙崙 經南崁) 5023 桃園客運 大興路口站 (大園-桃園) 5071 桃園客運 大興路口站 (桃園-醒吾中學 經外社) 5020 桃園客運 大興路口站 (桃園-下福) 106 中壢客運 大興路口站 (桃園-南崁) 1816 國光客運 大興路口 (桃園-臺北)",
        "phone": "03-325-0172",
        "fax": "03-325-0273",
        "coordinates": "25.0153471,121.3096035",
        "transportation": "公車：5021 桃園客運 大興路口站(桃園-下海湖) 5014 桃園客運 大興路口站(桃園-南崁 經南祥路) 5073 桃園客運 大興路口站 (桃園-頂社) 5016 桃園客運 大興路口站 (桃園-竹南 經山腳) 5069 桃園客運 大興路口站 (桃園-醒吾中學 經赤塗崎) 5015 桃園客運 大興路口站 (桃園-大園 經南崁) 5022 桃園客運 大興路口站 (桃園-沙崙 經南崁) 5023 桃園客運 大興路口站 (大園-桃園) 5071 桃園客運 大興路口站 (桃園-醒吾中學 經外社) 5020 桃園客運 大興路口站 (桃園-下福) 106 中壢客運 大興路口站 (桃園-南崁) 1816 國光客運 大興路口 (桃園-臺北)",
        "parking": "無",
        "accepted_items": "米、麵條、麥片、糖、鹽、料理包、泡麵、牙膏、牙刷、肥皂、毛巾、家用清潔劑、洗衣粉、沐浴乳、洗髮精、抹布、成人奶粉、嬰兒奶粉、罐頭、食用油、醬油調味料、成人紙尿布、嬰兒紙尿布、衛生紙/棉",
        "notes": "列表為建議捐贈品，實際狀況請恰分店人員。",
        "maps_url": "https://maps.apple/p/ntDJPthI-LnkM~"
      },
      {
        "name": "桃園大豐店（超市）",
        "address": "330 桃園市桃園區大豐路89號",
        "hours": "無",
        "phone": "03-374-2603、03-374-2426",
        "fax": "03-374-2415",
        "coordinates": "24.9802933,121.31644",
        "transportation": "無",
        "parking": "汽車6位。平日30元、假日40元 /小時。",
        "accepted_items": "米、麵條、麥片、糖、鹽、料理包、泡麵、牙膏、牙刷、肥皂、毛巾、家用清潔劑、洗衣粉、沐浴乳、洗髮精、抹布、成人奶粉、嬰兒奶粉、罐頭、食用油、醬油調味料、成人紙尿布、嬰兒紙尿布、衛生紙/棉",
        "notes": "列表為建議捐贈品，實際狀況請恰分店人員。",
        "maps_url": "https://maps.apple/p/76iY9Nr~czzgSD"
      },
      {
        "name": "桃園寶山店（超市）",
        "address": "330 桃園市桃園區寶山街276、278號",
        "hours": "無",
        "phone": "03-325-3722、03-325-3732",
        "fax": "03-325-3731",
        "coordinates": "25.0118927,121.3146716",
        "transportation": "無",
        "parking": "無",
        "accepted_items": "米、麵條、麥片、糖、鹽、料理包、泡麵、牙膏、牙刷、肥皂、毛巾、家用清潔劑、洗衣粉、沐浴乳、洗髮精、抹布、成人奶粉、嬰兒奶粉、罐頭、食用油、醬油調味料、成人紙尿布、嬰兒紙尿布、衛生紙/棉",
        "notes": "列表為建議捐贈品，實際狀況請恰分店人員。",
        "maps_url": "https://maps.apple/p/76iY9Nr~czzgSD"
      },
      {
        "name": "桃園復興店（超市）",
        "address": "330 桃園市桃園區復興路96號",
        "hours": "無",
        "phone": "03-334-1848、03-334-5328",
        "fax": "03-334-3244",
        "coordinates": "24.9911746,121.3158633",
        "transportation": "無",
        "parking": "無",
        "accepted_items": "米、麵條、麥片、糖、鹽、料理包、泡麵、牙膏、牙刷、肥皂、毛巾、家用清潔劑、洗衣粉、沐浴乳、洗髮精、抹布、成人奶粉、嬰兒奶粉、罐頭、食用油、醬油調味料、成人紙尿布、嬰兒紙尿布、衛生紙/棉",
        "notes": "列表為建議捐贈品，實際狀況請恰分店人員。",
        "maps_url": "https://maps.apple/p/hqjcG9QPnHIr22"
      },
      {
        "name": "經國店（量販）",
        "address": "330 桃園市桃園區經國路369號",
        "hours": "公車：桃園客運201路，桃園客運5059路，統聯客運168路，桃園區市民公車",
        "phone": "03-316-0676",
        "fax": "03-346-4704",
        "coordinates": "25.0159486,121.3053419",
        "transportation": "公車：桃園客運201路，桃園客運5059路，統聯客運168路，桃園區市民公車",
        "parking": "汽車873位、機車440位、殘障20位、親子30位。",
        "accepted_items": "米、麵條、麥片、糖、鹽、料理包、泡麵、牙膏、牙刷、肥皂、毛巾、家用清潔劑、洗衣粉、沐浴乳、洗髮精、抹布、成人奶粉、嬰兒奶粉、罐頭、食用油、醬油調味料、成人紙尿布、嬰兒紙尿布、衛生紙/棉、貓狗飼料和罐頭",
        "notes": "列表為建議捐贈品，實際狀況請恰分店人員。詳情：https://www.carrefour.com.tw/store-info/?store=經國店#tab=info",
        "maps_url": "https://maps.apple/p/JaDz~nq-TQypt6"
      },
      {
        "name": "桃園龍安店（超市）",
        "address": "330 桃園市桃園區龍安街137號",
        "hours": "公車：龍安街站 桃園客運101路",
        "phone": "03-369-8550",
        "fax": "03-369-8575",
        "coordinates": "24.9908651,121.2795276",
        "transportation": "公車：龍安街站 桃園客運101路",
        "parking": "無",
        "accepted_items": "米、麵條、麥片、糖、鹽、料理包、泡麵、牙膏、牙刷、肥皂、毛巾、家用清潔劑、洗衣粉、沐浴乳、洗髮精、抹布、成人奶粉、嬰兒奶粉、罐頭、食用油、醬油調味料、成人紙尿布、嬰兒紙尿布、衛生紙/棉",
        "notes": "列表為建議捐贈品，實際狀況請恰分店人員。",
        "maps_url": "https://maps.apple/p/esvpVZp7eCk5wC"
      },
      {
        "name": "桃園復興一店（超市）",
        "address": "333 桃園市龜山區復興一路222號",
        "hours": "無",
        "phone": "03-328-8385、03-328-8392",
        "fax": "03-328-8587",
        "coordinates": "25.0573668,121.3657047",
        "transportation": "無",
        "parking": "汽車20位。50元/小時。",
        "accepted_items": "米、麵條、麥片、糖、鹽、料理包、泡麵、牙膏、牙刷、肥皂、毛巾、家用清潔劑、洗衣粉、沐浴乳、洗髮精、抹布、成人奶粉、嬰兒奶粉、罐頭、食用油、醬油調味料、成人紙尿布、嬰兒紙尿布、衛生紙/棉",
        "notes": "列表為建議捐贈品，實際狀況請恰分店人員。",
        "maps_url": "https://maps.apple/p/-614ZjrR1g9kKo"
      },
      {
        "name": "桃園文化七店（超市）",
        "address": "333 桃園市龜山區文化七路173號",
        "hours": "無",
        "phone": "03-327-4328",
        "fax": "03-327-5727",
        "coordinates": "25.0518361,121.3669392",
        "transportation": "無",
        "parking": "無",
        "accepted_items": "米、麵條、麥片、糖、鹽、料理包、泡麵、牙膏、牙刷、肥皂、毛巾、家用清潔劑、洗衣粉、沐浴乳、洗髮精、抹布、成人奶粉、嬰兒奶粉、罐頭、食用油、醬油調味料、成人紙尿布、嬰兒紙尿布、衛生紙/棉",
        "notes": "列表為建議捐贈品，實際狀況請恰分店人員。",
        "maps_url": "https://maps.apple/p/xQhnpgVWqkBLhq"
      },
      {
        "name": "龜山文青店（超市）",
        "address": "333 桃園市龜山區文青路137號B1",
        "hours": "無",
        "phone": "03-328-6301",
        "fax": "03-328-6302",
        "coordinates": "25.0403517,121.3865282",
        "transportation": "無",
        "parking": "汽車47位。30元/小時。",
        "accepted_items": "米、麵條、麥片、糖、鹽、料理包、泡麵、牙膏、牙刷、肥皂、毛巾、家用清潔劑、洗衣粉、沐浴乳、洗髮精、抹布、成人奶粉、嬰兒奶粉、罐頭、食用油、醬油調味料、成人紙尿布、嬰兒紙尿布、衛生紙/棉",
        "notes": "列表為建議捐贈品，實際狀況請恰分店人員。",
        "maps_url": "https://maps.apple/p/sGmj_iRTfKi9w-"
      },
      {
        "name": "桃園萬壽店（超市）",
        "address": "333 桃園市龜山區萬壽路一段293-295號",
        "hours": "無",
        "phone": "02-8209-8221",
        "fax": "02-8209-8244",
        "coordinates": "25.0171393,121.4031395",
        "transportation": "無",
        "parking": "無",
        "accepted_items": "米、麵條、麥片、糖、鹽、料理包、泡麵、牙膏、牙刷、肥皂、毛巾、家用清潔劑、洗衣粉、沐浴乳、洗髮精、抹布、成人奶粉、嬰兒奶粉、罐頭、食用油、醬油調味料、成人紙尿布、嬰兒紙尿布、衛生紙/棉",
        "notes": "列表為建議捐贈品，實際狀況請恰分店人員。",
        "maps_url": "https://maps.apple/p/3i2jW5sv7MTDP_"
      },
      {
        "name": "桃園萬壽二店（超市）",
        "address": "333 桃園市龜山區萬壽路二段663-667號",
        "hours": "無",
        "phone": "03-349-3008、03-349-8433",
        "fax": "03-349-8675",
        "coordinates": "24.9988801,121.345647",
        "transportation": "無",
        "parking": "無",
        "accepted_items": "米、麵條、麥片、糖、鹽、料理包、泡麵、牙膏、牙刷、肥皂、毛巾、家用清潔劑、洗衣粉、沐浴乳、洗髮精、抹布、成人奶粉、嬰兒奶粉、罐頭、食用油、醬油調味料、成人紙尿布、嬰兒紙尿布、衛生紙/棉",
        "notes": "列表為建議捐贈品，實際狀況請恰分店人員。",
        "maps_url": "https://maps.apple/p/bkx.-H5IZRT.PW"
      },
      {
        "name": "桃園陸光店（超市）",
        "address": "333 桃園市龜山區陸光路81號",
        "hours": "無",
        "phone": "03-213-3818、03-213-3817",
        "fax": "03- 213-3815",
        "coordinates": "24.9954184,121.3316101",
        "transportation": "無",
        "parking": "無",
        "accepted_items": "米、麵條、麥片、糖、鹽、料理包、泡麵、牙膏、牙刷、肥皂、毛巾、家用清潔劑、洗衣粉、沐浴乳、洗髮精、抹布、成人奶粉、嬰兒奶粉、罐頭、食用油、醬油調味料、成人紙尿布、嬰兒紙尿布、衛生紙/棉",
        "notes": "列表為建議捐贈品，實際狀況請恰分店人員。",
        "maps_url": "https://maps.apple/p/CoJ7aijC1aSkR-"
      },
      {
        "name": "八德店（量販）",
        "address": "334 桃園市八德區介壽路一段728號B2",
        "hours": "見「 備註」。",
        "phone": "03-361-1385",
        "fax": "03-361-0815",
        "coordinates": "24.9650377,121.2990703",
        "transportation": "見「 備註」。",
        "parking": "汽車1117位、機車867位、殘障27位、親子23位。",
        "accepted_items": "米、麵條、麥片、糖、鹽、料理包、泡麵、牙膏、牙刷、肥皂、毛巾、家用清潔劑、洗衣粉、沐浴乳、洗髮精、抹布、成人奶粉、嬰兒奶粉、罐頭、食用油、醬油調味料、成人紙尿布、嬰兒紙尿布、衛生紙/棉、貓狗飼料和罐頭",
        "notes": "交通和停車詳情：https://www.carrefour.com.tw/store-info/?store=八德店#tab=info 。列表為建議捐贈品，實際狀況請恰分店人員。",
        "maps_url": "https://maps.apple/p/3C7Z9y2G28Wp4c"
      },
      {
        "name": "大溪介壽店（超市）",
        "address": "335 桃園市大溪區介壽路894號、896號",
        "hours": "無",
        "phone": "03-380-2244、03-380-9842",
        "fax": "03-380-0448",
        "coordinates": "24.9003068,121.2837207",
        "transportation": "無",
        "parking": "無",
        "accepted_items": "米、麵條、麥片、糖、鹽、料理包、泡麵、牙膏、牙刷、肥皂、毛巾、家用清潔劑、洗衣粉、沐浴乳、洗髮精、抹布、成人奶粉、嬰兒奶粉、罐頭、食用油、醬油調味料、成人紙尿布、嬰兒紙尿布、衛生紙/棉",
        "notes": "列表為建議捐贈品，實際狀況請恰分店人員。",
        "maps_url": "https://maps.apple/p/B6H7ML5HznH.ws"
      },
      {
        "name": "蘆竹奉化店（超市）",
        "address": "338 桃園市蘆竹區奉化路248號",
        "hours": "無",
        "phone": "03-311-6523、03-311-8715",
        "fax": "03-311-0582",
        "coordinates": "25.0375034,121.2916524",
        "transportation": "無",
        "parking": "無",
        "accepted_items": "米、麵條、麥片、糖、鹽、料理包、泡麵、牙膏、牙刷、肥皂、毛巾、家用清潔劑、洗衣粉、沐浴乳、洗髮精、抹布、成人奶粉、嬰兒奶粉、罐頭、食用油、醬油調味料、成人紙尿布、嬰兒紙尿布、衛生紙/棉",
        "notes": "列表為建議捐贈品，實際狀況請恰分店人員。",
        "maps_url": "https://maps.apple/p/hChV-W_7Y-N8w5"
      },
      {
        "name": "南竹店（超市）",
        "address": "338 桃園市蘆竹區桃園街118號B1",
        "hours": "見「 備註」。",
        "phone": "03-212-2077",
        "fax": "03-212-2078",
        "coordinates": "25.0480466,121.2907185",
        "transportation": "見「 備註」。",
        "parking": "汽車50位、機車70位。平日30元、假日40元 /小時。",
        "accepted_items": "米、麵條、麥片、糖、鹽、料理包、泡麵、牙膏、牙刷、肥皂、毛巾、家用清潔劑、洗衣粉、沐浴乳、洗髮精、抹布、成人奶粉、嬰兒奶粉、罐頭、食用油、醬油調味料、成人紙尿布、嬰兒紙尿布、衛生紙/棉",
        "notes": "交通和停車詳情：https://www.carrefour.com.tw/store-info/?store=南竹店#tab=info 。列表為建議捐贈品，實際狀況請恰分店人員。",
        "maps_url": "https://maps.apple/p/yY1nYjYR9pWr4m"
      },
      {
        "name": "蘆竹福祿一店（超市）",
        "address": "338 桃園市蘆竹區福祿一街189-193號",
        "hours": "無",
        "phone": "03-311-6651、03-311-7023",
        "fax": "03-311-7692",
        "coordinates": "25.0568158,121.2962048",
        "transportation": "無",
        "parking": "無",
        "accepted_items": "米、麵條、麥片、糖、鹽、料理包、泡麵、牙膏、牙刷、肥皂、毛巾、家用清潔劑、洗衣粉、沐浴乳、洗髮精、抹布、成人奶粉、嬰兒奶粉、罐頭、食用油、醬油調味料、成人紙尿布、嬰兒紙尿布、衛生紙/棉",
        "notes": "列表為建議捐贈品，實際狀況請恰分店人員。",
        "maps_url": "https://maps.apple/p/LmIvicM78ccXc4"
      },
      {
        "name": "竹南民族二店（超市）",
        "address": "350 苗栗縣竹南鎮民族街146號",
        "hours": "無",
        "phone": "03-748-1301、03-748-1303",
        "fax": "03-747-5111",
        "coordinates": "24.6875416,120.8786475",
        "transportation": "無",
        "parking": "無",
        "accepted_items": "米、麵條、麥片、糖、鹽、料理包、泡麵、牙膏、牙刷、肥皂、毛巾、家用清潔劑、洗衣粉、沐浴乳、洗髮精、抹布、成人奶粉、嬰兒奶粉、罐頭、食用油、醬油調味料、成人紙尿布、嬰兒紙尿布、衛生紙/棉",
        "notes": "列表為建議捐贈品，實際狀況請恰分店人員。",
        "maps_url": "https://maps.apple/p/iF3KKvsYtbSGPK"
      },
      {
        "name": "頭份中華店（超市）",
        "address": "351 苗栗縣頭份市中華路1155號",
        "hours": "無",
        "phone": "03-769-1625~6",
        "fax": "03-769-1627",
        "coordinates": "24.68793,120.9110221",
        "transportation": "無",
        "parking": "汽車8位。平日30元、假日40元 /小時。",
        "accepted_items": "米、麵條、麥片、糖、鹽、料理包、泡麵、牙膏、牙刷、肥皂、毛巾、家用清潔劑、洗衣粉、沐浴乳、洗髮精、抹布、成人奶粉、嬰兒奶粉、罐頭、食用油、醬油調味料、成人紙尿布、嬰兒紙尿布、衛生紙/棉",
        "notes": "列表為建議捐贈品，實際狀況請恰分店人員。",
        "maps_url": "https://maps.apple/p/iQHHXEqeArryUb"
      },
      {
        "name": "後龍中山店（超市）",
        "address": "356 苗栗縣後龍鎮中山路116-120號",
        "hours": "無",
        "phone": "03-772-8559、03-772-8564",
        "fax": "03-772--362",
        "coordinates": "24.6141435,120.7911138",
        "transportation": "無",
        "parking": "無",
        "accepted_items": "米、麵條、麥片、糖、鹽、料理包、泡麵、牙膏、牙刷、肥皂、毛巾、家用清潔劑、洗衣粉、沐浴乳、洗髮精、抹布、成人奶粉、嬰兒奶粉、罐頭、食用油、醬油調味料、成人紙尿布、嬰兒紙尿布、衛生紙/棉",
        "notes": "列表為建議捐贈品，實際狀況請恰分店人員。",
        "maps_url": "https://maps.apple/p/mpK70ofdtD6XaY"
      },
      {
        "name": "苗栗店（量販）",
        "address": "360 苗栗縣苗栗市國華路599號",
        "hours": "無",
        "phone": "03-733-3000",
        "fax": "03-733-6000",
        "coordinates": "24.5740515,120.8176207",
        "transportation": "無",
        "parking": "汽車332位、殘障2位、親子1位。",
        "accepted_items": "米、麵條、麥片、糖、鹽、料理包、泡麵、牙膏、牙刷、肥皂、毛巾、家用清潔劑、洗衣粉、沐浴乳、洗髮精、抹布、成人奶粉、嬰兒奶粉、罐頭、食用油、醬油調味料、成人紙尿布、嬰兒紙尿布、衛生紙/棉、貓狗飼料和罐頭",
        "notes": "列表為建議捐贈品，實際狀況請恰分店人員。詳情：https://www.carrefour.com.tw/store-info/?store=苗栗店#tab=info",
        "maps_url": "https://maps.apple/p/vadL7N~Co5W12y"
      },
      {
        "name": "德安店（量販）",
        "address": "401 台中市東區復興路4段186號B1",
        "hours": "公車：台中火車站(前站) 仁友客運 1，20，21，22，25，29，30，31，37，40，45，48，105，125、台中客運 9，15，27，35，70，71，82，6101，6873，6100，6131，6107，6132，88，6106 & 台中火車站(後站) 仁友客運 89、豐原客運 51，60，89，280，286，289、TTJ捷運公車：51(英才太平線)",
        "phone": "04-2223-6677",
        "fax": "04-2220-6677",
        "coordinates": "24.1354739,120.6876742",
        "transportation": "公車：台中火車站(前站) 仁友客運 1，20，21，22，25，29，30，31，37，40，45，48，105，125、台中客運 9，15，27，35，70，71，82，6101，6873，6100，6131，6107，6132，88，6106 & 台中火車站(後站) 仁友客運 89、豐原客運 51，60，89，280，286，289、TTJ捷運公車：51(英才太平線)",
        "parking": "汽車740位、機車427位、殘障9位、親子16位。",
        "accepted_items": "米、麵條、麥片、糖、鹽、料理包、泡麵、牙膏、牙刷、肥皂、毛巾、家用清潔劑、洗衣粉、沐浴乳、洗髮精、抹布、成人奶粉、嬰兒奶粉、罐頭、食用油、醬油調味料、成人紙尿布、嬰兒紙尿布、衛生紙/棉、貓狗飼料和罐頭",
        "notes": "列表為建議捐贈品，實際狀況請恰分店人員。詳情：https://www.carrefour.com.tw/store-info/?store=德安店#tab=info",
        "maps_url": "https://maps.apple/p/pBqGsnVEsttnGc"
      },
      {
        "name": "台中復興店（超市）",
        "address": "402 台中市南區復興路二段120號",
        "hours": "公車：復興新和街口站 37，82，101，105，6735，6735A，6736，6737，6737A，6738A，6882，6882A，6933，6935 步行約一分鐘皆可抵達",
        "phone": "04-2262-5616",
        "fax": "04-2262-5616",
        "coordinates": "24.1241465,120.6636572",
        "transportation": "公車：復興新和街口站 37，82，101，105，6735，6735A，6736，6737，6737A，6738A，6882，6882A，6933，6935 步行約一分鐘皆可抵達",
        "parking": "汽車10位。25元/半小時。",
        "accepted_items": "米、麵條、麥片、糖、鹽、料理包、泡麵、牙膏、牙刷、肥皂、毛巾、家用清潔劑、洗衣粉、沐浴乳、洗髮精、抹布、成人奶粉、嬰兒奶粉、罐頭、食用油、醬油調味料、成人紙尿布、嬰兒紙尿布、衛生紙/棉",
        "notes": "列表為建議捐贈品，實際狀況請恰分店人員。",
        "maps_url": "https://maps.apple/p/K9ZiSY5Xa1cBXb"
      },
      {
        "name": "台中進化店（超市）",
        "address": "404 台中市北區進化路379號",
        "hours": "公車：進化興進路口 台中市公車 33號，52號",
        "phone": "04-2360-2158",
        "fax": "04-2360-2159",
        "coordinates": "24.154648,120.6941955",
        "transportation": "公車：進化興進路口 台中市公車 33號，52號",
        "parking": "無",
        "accepted_items": "米、麵條、麥片、糖、鹽、料理包、泡麵、牙膏、牙刷、肥皂、毛巾、家用清潔劑、洗衣粉、沐浴乳、洗髮精、抹布、成人奶粉、嬰兒奶粉、罐頭、食用油、醬油調味料、成人紙尿布、嬰兒紙尿布、衛生紙/棉",
        "notes": "列表為建議捐贈品，實際狀況請恰分店人員。",
        "maps_url": "https://maps.apple/p/S8r_ox7-6bdngC"
      },
      {
        "name": "台中漢口店（超市）",
        "address": "404 台中市北區漢口路四段295號",
        "hours": "公車：67號公車 漢口永興街口站 步行約4分鐘、127號公車 漢口永興街口站 步行約4分鐘、33號公車 中清漢口路口站 步行約10分鐘",
        "phone": "04-2236-0276",
        "fax": "24小時",
        "coordinates": "24.167312,120.6802438",
        "transportation": "公車：67號公車 漢口永興街口站 步行約4分鐘、127號公車 漢口永興街口站 步行約4分鐘、33號公車 中清漢口路口站 步行約10分鐘",
        "parking": "汽車36位、機車20位、殘障1位。",
        "accepted_items": "米、麵條、麥片、糖、鹽、料理包、泡麵、牙膏、牙刷、肥皂、毛巾、家用清潔劑、洗衣粉、沐浴乳、洗髮精、抹布、成人奶粉、嬰兒奶粉、罐頭、食用油、醬油調味料、成人紙尿布、嬰兒紙尿布、衛生紙/棉",
        "notes": "列表為建議捐贈品，實際狀況請恰分店人員。",
        "maps_url": "https://maps.apple/p/v1W~HWxBomMjfi"
      },
      {
        "name": "台中水湳店（超市）",
        "address": "406 台中市北屯區中清路二段165號",
        "hours": "無",
        "phone": "04-2296-5766",
        "fax": "04-2296-5766#117",
        "coordinates": "24.1766491,120.6694642",
        "transportation": "無",
        "parking": "汽車6位、機車100位。",
        "accepted_items": "米、麵條、麥片、糖、鹽、料理包、泡麵、牙膏、牙刷、肥皂、毛巾、家用清潔劑、洗衣粉、沐浴乳、洗髮精、抹布、成人奶粉、嬰兒奶粉、罐頭、食用油、醬油調味料、成人紙尿布、嬰兒紙尿布、衛生紙/棉",
        "notes": "列表為建議捐贈品，實際狀況請恰分店人員。",
        "maps_url": "https://maps.apple/p/BBSvrc13WDiJFS"
      },
      {
        "name": "台中興安店（超市）",
        "address": "406 台中市北屯區平田里13鄰興安路一段288號",
        "hours": "公車：8 道禾六藝文化館 → 逢甲大學",
        "phone": "04-2242-0200",
        "fax": "04-2242-0150",
        "coordinates": "24.173214,120.6945753",
        "transportation": "公車：8 道禾六藝文化館 → 逢甲大學",
        "parking": "無",
        "accepted_items": "米、麵條、麥片、糖、鹽、料理包、泡麵、牙膏、牙刷、肥皂、毛巾、家用清潔劑、洗衣粉、沐浴乳、洗髮精、抹布、成人奶粉、嬰兒奶粉、罐頭、食用油、醬油調味料、成人紙尿布、嬰兒紙尿布、衛生紙/棉",
        "notes": "列表為建議捐贈品，實際狀況請恰分店人員。",
        "maps_url": "https://maps.apple/p/3dkiDpZSSawF42"
      },
      {
        "name": "昌平店（超市）",
        "address": "406 台中市北屯區昌平路一段105-1號",
        "hours": "公車：文心昌平路口站   巨業客運 68路、統聯客運  53路，77路，85路",
        "phone": "04-2243-6058",
        "fax": "04-2243-6059",
        "coordinates": "24.1734595,120.6903568",
        "transportation": "公車：文心昌平路口站   巨業客運 68路、統聯客運  53路，77路，85路",
        "parking": "機車50位。",
        "accepted_items": "米、麵條、麥片、糖、鹽、料理包、泡麵、牙膏、牙刷、肥皂、毛巾、家用清潔劑、洗衣粉、沐浴乳、洗髮精、抹布、成人奶粉、嬰兒奶粉、罐頭、食用油、醬油調味料、成人紙尿布、嬰兒紙尿布、衛生紙/棉",
        "notes": "列表為建議捐贈品，實際狀況請恰分店人員。",
        "maps_url": "https://maps.apple/p/88J4~ShJugi9-L"
      },
      {
        "name": "北屯總太店（超市）",
        "address": "406 台中市北屯區環太東路477號",
        "hours": "無",
        "phone": "04-3700-0938",
        "fax": "無",
        "coordinates": "24.1582276,120.730303",
        "transportation": "無",
        "parking": "無",
        "accepted_items": "米、麵條、麥片、糖、鹽、料理包、泡麵、牙膏、牙刷、肥皂、毛巾、家用清潔劑、洗衣粉、沐浴乳、洗髮精、抹布、成人奶粉、嬰兒奶粉、罐頭、食用油、醬油調味料、成人紙尿布、嬰兒紙尿布、衛生紙/棉",
        "notes": "列表為建議捐贈品，實際狀況請恰分店人員。",
        "maps_url": "https://maps.apple/p/CnBgmX117APjhZ"
      },
      {
        "name": "中清店（量販）",
        "address": "407 台中市西屯區中清路三段436號",
        "hours": "公車：頭張(中清路)   台中客運 9路， 6115路， 6855路、巨業客運：555路、統聯客運：61路",
        "phone": "04-2426-2555",
        "fax": "04-2426-2556",
        "coordinates": "24.206841,120.6524708",
        "transportation": "公車：頭張(中清路)   台中客運 9路， 6115路， 6855路、巨業客運：555路、統聯客運：61路",
        "parking": "汽車455位、殘障8位、親子12位。40元/小時。",
        "accepted_items": "米、麵條、麥片、糖、鹽、料理包、泡麵、牙膏、牙刷、肥皂、毛巾、家用清潔劑、洗衣粉、沐浴乳、洗髮精、抹布、成人奶粉、嬰兒奶粉、罐頭、食用油、醬油調味料、成人紙尿布、嬰兒紙尿布、衛生紙/棉、貓狗飼料和罐頭",
        "notes": "列表為建議捐贈品，實際狀況請恰分店人員。詳情：https://www.carrefour.com.tw/store-info/?store=中清店#tab=info",
        "maps_url": "https://maps.apple/p/Q8NnzICbkybDYH"
      },
      {
        "name": "西屯店（量販）",
        "address": "407 台中市西屯區台灣大道四段1086號",
        "hours": "公車：中港澄清醫院 300，302，303，304，305，306，307，308，310，走約150公尺 家樂福即在右手邊",
        "phone": "04-2465-2028",
        "fax": "04-2465-2010",
        "coordinates": "24.1843259,120.614977",
        "transportation": "公車：中港澄清醫院 300，302，303，304，305，306，307，308，310，走約150公尺 家樂福即在右手邊",
        "parking": "汽車485位、殘障12位、親子9位。汽車 40元/小時。",
        "accepted_items": "米、麵條、麥片、糖、鹽、料理包、泡麵、牙膏、牙刷、肥皂、毛巾、家用清潔劑、洗衣粉、沐浴乳、洗髮精、抹布、成人奶粉、嬰兒奶粉、罐頭、食用油、醬油調味料、成人紙尿布、嬰兒紙尿布、衛生紙/棉、貓狗飼料和罐頭",
        "notes": "列表為建議捐贈品，實際狀況請恰分店人員。詳情：https://www.carrefour.com.tw/store-info/?store=西屯店#tab=info",
        "maps_url": "https://maps.apple/p/K~0XQ2u5bD_8ad"
      },
      {
        "name": "西屯青海店（超市）",
        "address": "407 台中市西屯區青海路一段126，128號",
        "hours": "無",
        "phone": "04-2317-4258",
        "fax": "04-2314-4460",
        "coordinates": "24.1650563,120.6541302",
        "transportation": "無",
        "parking": "無",
        "accepted_items": "米、麵條、麥片、糖、鹽、料理包、泡麵、牙膏、牙刷、肥皂、毛巾、家用清潔劑、洗衣粉、沐浴乳、洗髮精、抹布、成人奶粉、嬰兒奶粉、罐頭、食用油、醬油調味料、成人紙尿布、嬰兒紙尿布、衛生紙/棉",
        "notes": "列表為建議捐贈品，實際狀況請恰分店人員。",
        "maps_url": "https://maps.apple/p/hu_u-zXn~15vw1"
      },
      {
        "name": "青海店（量販）",
        "address": "407 台中市西屯區青海路二段207-18號",
        "hours": "公車：統聯客運79路 直達、台中客運33路 青海路及河南路口 步行約50公尺即可到達。",
        "phone": "04-2707-3866",
        "fax": "04-2707-3877",
        "coordinates": "24.1698018,120.6445989",
        "transportation": "公車：統聯客運79路 直達、台中客運33路 青海路及河南路口 步行約50公尺即可到達。",
        "parking": "汽車454位、機車150位、殘障10位、親子10位。",
        "accepted_items": "米、麵條、麥片、糖、鹽、料理包、泡麵、牙膏、牙刷、肥皂、毛巾、家用清潔劑、洗衣粉、沐浴乳、洗髮精、抹布、成人奶粉、嬰兒奶粉、罐頭、食用油、醬油調味料、成人紙尿布、嬰兒紙尿布、衛生紙/棉、貓狗飼料和罐頭",
        "notes": "列表為建議捐贈品，實際狀況請恰分店人員。詳情：https://www.carrefour.com.tw/store-info/?store=青海店#tab=info",
        "maps_url": "https://maps.apple/p/bzpYv7x7vW6MQK"
      },
      {
        "name": "台中大墩11店（超市）",
        "address": "408 台中市南屯區大墩十一街730號",
        "hours": "公車：五權三厝街口站 56號公車，步行約9分鐘、三厝里站 75號公車，步行約1分鐘",
        "phone": "04-2252-8128",
        "fax": "04-2252-8129",
        "coordinates": "24.1485856,120.6351703",
        "transportation": "公車：五權三厝街口站 56號公車，步行約9分鐘、三厝里站 75號公車，步行約1分鐘",
        "parking": "無",
        "accepted_items": "米、麵條、麥片、糖、鹽、料理包、泡麵、牙膏、牙刷、肥皂、毛巾、家用清潔劑、洗衣粉、沐浴乳、洗髮精、抹布、成人奶粉、嬰兒奶粉、罐頭、食用油、醬油調味料、成人紙尿布、嬰兒紙尿布、衛生紙/棉",
        "notes": "列表為建議捐贈品，實際狀況請恰分店人員。",
        "maps_url": "https://maps.apple/p/ZC-_~Nfnxn49jM"
      },
      {
        "name": "大墩店（量販）",
        "address": "408 台中市南屯區大墩路533號B1",
        "hours": "公車：大墩十二街口站 台中客運60路 & 公益大墩路口站 台中客運27路，72路，107路、統聯客運 81路。統聯客運：0800-241-560 & 台中客運：0800-800-126。",
        "phone": "04-2310-8467",
        "fax": "04-2310-8468",
        "coordinates": "24.1495425,120.6496754",
        "transportation": "公車：大墩十二街口站 台中客運60路 & 公益大墩路口站 台中客運27路，72路，107路、統聯客運 81路。統聯客運：0800-241-560 & 台中客運：0800-800-126。",
        "parking": "汽車496位、機車220位。40元/小時。",
        "accepted_items": "米、麵條、麥片、糖、鹽、料理包、泡麵、牙膏、牙刷、肥皂、毛巾、家用清潔劑、洗衣粉、沐浴乳、洗髮精、抹布、成人奶粉、嬰兒奶粉、罐頭、食用油、醬油調味料、成人紙尿布、嬰兒紙尿布、衛生紙/棉、貓狗飼料和罐頭",
        "notes": "列表為建議捐贈品，實際狀況請恰分店人員。詳情：https://www.carrefour.com.tw/store-info/?store=大墩店#tab=info",
        "maps_url": "https://maps.apple/p/64o_5_NTEk9_NA"
      },
      {
        "name": "文心店（量販）",
        "address": "408 台中市南屯區文心路一段521號",
        "hours": "公車：市政路口站 統聯市區公車73路，統聯市區公車85路；捷運：臺中捷運烏日文心北屯線 水安宮站 出口出站，左轉步行一分鐘可抵達",
        "phone": "04-2254-3355",
        "fax": "04-2252-1133",
        "coordinates": "24.153923,120.6462663",
        "transportation": "公車：市政路口站 統聯市區公車73路，統聯市區公車85路；捷運：臺中捷運烏日文心北屯線 水安宮站 出口出站，左轉步行一分鐘可抵達",
        "parking": "汽車485位、殘障12位、親子9位。",
        "accepted_items": "米、麵條、麥片、糖、鹽、料理包、泡麵、牙膏、牙刷、肥皂、毛巾、家用清潔劑、洗衣粉、沐浴乳、洗髮精、抹布、成人奶粉、嬰兒奶粉、罐頭、食用油、醬油調味料、成人紙尿布、嬰兒紙尿布、衛生紙/棉、貓狗飼料和罐頭",
        "notes": "列表為建議捐贈品，實際狀況請恰分店人員。詳情：https://www.carrefour.com.tw/store-info/?store=文心店#tab=info",
        "maps_url": "https://maps.apple/p/zJJiHda6SLdHTc"
      },
      {
        "name": "南屯黎明店（超市）",
        "address": "408 台中市南屯區黎明路二段423號",
        "hours": "無",
        "phone": "04-2252-2418",
        "fax": "04-2252-0470",
        "coordinates": "24.1518202,120.6349095",
        "transportation": "無",
        "parking": "無",
        "accepted_items": "米、麵條、麥片、糖、鹽、料理包、泡麵、牙膏、牙刷、肥皂、毛巾、家用清潔劑、洗衣粉、沐浴乳、洗髮精、抹布、成人奶粉、嬰兒奶粉、罐頭、食用油、醬油調味料、成人紙尿布、嬰兒紙尿布、衛生紙/棉",
        "notes": "列表為建議捐贈品，實際狀況請恰分店人員。",
        "maps_url": "https://maps.apple/p/e5s2NRy1LhybLQ"
      },
      {
        "name": "太平店（量販）",
        "address": "411 台中市太平區中平七街70號",
        "hours": "未知",
        "phone": "04-2277-8068",
        "fax": "04-2278-3366",
        "coordinates": "24.1250373,120.7194295",
        "transportation": "未知",
        "parking": "汽車195位、機車173位、殘障4位、親子2位。",
        "accepted_items": "米、麵條、麥片、糖、鹽、料理包、泡麵、牙膏、牙刷、肥皂、毛巾、家用清潔劑、洗衣粉、沐浴乳、洗髮精、抹布、成人奶粉、嬰兒奶粉、罐頭、食用油、醬油調味料、成人紙尿布、嬰兒紙尿布、衛生紙/棉、貓狗飼料和罐頭",
        "notes": "列表為建議捐贈品，實際狀況請恰分店人員。詳情：https://www.carrefour.com.tw/store-info/?store=太平店#tab=info",
        "maps_url": "https://maps.apple/p/-gtVpy~r5eWUy7"
      },
      {
        "name": "太平環中店（超市）",
        "address": "411 台中市太平區環中東路三段567號",
        "hours": "無",
        "phone": "04-2391-6018",
        "fax": "04-2391-6001",
        "coordinates": "24.1497963,120.7149991",
        "transportation": "無",
        "parking": "無",
        "accepted_items": "米、麵條、麥片、糖、鹽、料理包、泡麵、牙膏、牙刷、肥皂、毛巾、家用清潔劑、洗衣粉、沐浴乳、洗髮精、抹布、成人奶粉、嬰兒奶粉、罐頭、食用油、醬油調味料、成人紙尿布、嬰兒紙尿布、衛生紙/棉",
        "notes": "列表為建議捐贈品，實際狀況請恰分店人員。",
        "maps_url": "https://maps.apple/p/Yiad0QadgHBqBo"
      },
      {
        "name": "太平育賢店（超市）",
        "address": "411 台中市太平區育賢路190號",
        "hours": "無",
        "phone": "04-37003599",
        "fax": "無",
        "coordinates": "24.1576895,120.7207408",
        "transportation": "無",
        "parking": "無",
        "accepted_items": "米、麵條、麥片、糖、鹽、料理包、泡麵、牙膏、牙刷、肥皂、毛巾、家用清潔劑、洗衣粉、沐浴乳、洗髮精、抹布、成人奶粉、嬰兒奶粉、罐頭、食用油、醬油調味料、成人紙尿布、嬰兒紙尿布、衛生紙/棉",
        "notes": "列表為建議捐贈品，實際狀況請恰分店人員。",
        "maps_url": "https://maps.apple/p/grCbNtcCIR23K-"
      },
      {
        "name": "台中大里中興店（超市）",
        "address": "412 台中市大里區中興路二段550號",
        "hours": "公車：中興內新街口 107，108，131，132，201，285",
        "phone": "04-2485-2689",
        "fax": "04-2485-0821",
        "coordinates": "24.1137871,120.6899372",
        "transportation": "公車：中興內新街口 107，108，131，132，201，285",
        "parking": "無",
        "accepted_items": "米、麵條、麥片、糖、鹽、料理包、泡麵、牙膏、牙刷、肥皂、毛巾、家用清潔劑、洗衣粉、沐浴乳、洗髮精、抹布、成人奶粉、嬰兒奶粉、罐頭、食用油、醬油調味料、成人紙尿布、嬰兒紙尿布、衛生紙/棉",
        "notes": "列表為建議捐贈品，實際狀況請恰分店人員。",
        "maps_url": "https://maps.apple/p/3r3EWrNd4Xn-nx"
      },
      {
        "name": "烏日信義店（超市）",
        "address": "414 台中市烏日區信義街164巷9弄17號",
        "hours": "公車：明道花園城，步行約400公尺",
        "phone": "04-3707-2500",
        "fax": "04-2337-0078",
        "coordinates": "24.105195,120.6395165",
        "transportation": "公車：明道花園城，步行約400公尺",
        "parking": "無",
        "accepted_items": "米、麵條、麥片、糖、鹽、料理包、泡麵、牙膏、牙刷、肥皂、毛巾、家用清潔劑、洗衣粉、沐浴乳、洗髮精、抹布、成人奶粉、嬰兒奶粉、罐頭、食用油、醬油調味料、成人紙尿布、嬰兒紙尿布、衛生紙/棉",
        "notes": "列表為建議捐贈品，實際狀況請恰分店人員。",
        "maps_url": "https://maps.apple/p/7bZ55JgkjPMRsk"
      },
      {
        "name": "豐原向陽店（超市）",
        "address": "420 台中市豐原區向陽路265號1、2樓",
        "hours": "公車：向陽圓環東路口，步行約150公尺",
        "phone": "04-3706-4420",
        "fax": "無",
        "coordinates": "24.2514411,120.7279865",
        "transportation": "公車：向陽圓環東路口，步行約150公尺",
        "parking": "無",
        "accepted_items": "米、麵條、麥片、糖、鹽、料理包、泡麵、牙膏、牙刷、肥皂、毛巾、家用清潔劑、洗衣粉、沐浴乳、洗髮精、抹布、成人奶粉、嬰兒奶粉、罐頭、食用油、醬油調味料、成人紙尿布、嬰兒紙尿布、衛生紙/棉",
        "notes": "列表為建議捐贈品，實際狀況請恰分店人員。",
        "maps_url": "https://maps.apple/p/G0eyaJt8nbLKpQ"
      },
      {
        "name": "豐原店（量販）",
        "address": "420 台中市豐原區成功路500號",
        "hours": "公車：豐原果菜市場 豐原客運235",
        "phone": "04-2526-5151",
        "fax": "04-2522-0101",
        "coordinates": "24.2519853,120.7061138",
        "transportation": "公車：豐原果菜市場 豐原客運235",
        "parking": "汽車420位、殘障9位。40元/小時。",
        "accepted_items": "米、麵條、麥片、糖、鹽、料理包、泡麵、牙膏、牙刷、肥皂、毛巾、家用清潔劑、洗衣粉、沐浴乳、洗髮精、抹布、成人奶粉、嬰兒奶粉、罐頭、食用油、醬油調味料、成人紙尿布、嬰兒紙尿布、衛生紙/棉、貓狗飼料和罐頭",
        "notes": "列表為建議捐贈品，實際狀況請恰分店人員。詳情：https://www.carrefour.com.tw/store-info/?store=豐原店#tab=info",
        "maps_url": "https://maps.apple/p/.r-BuB3XdtWPa.z"
      },
      {
        "name": "豐南店（超市）",
        "address": "420 台中市豐原區豐南街118號",
        "hours": "無",
        "phone": "04-2528-0897",
        "fax": "04-2528-0893",
        "coordinates": "24.2391811,120.714853",
        "transportation": "無",
        "parking": "汽車40位、機車100位。汽車 20元/小時，最高120。",
        "accepted_items": "米、麵條、麥片、糖、鹽、料理包、泡麵、牙膏、牙刷、肥皂、毛巾、家用清潔劑、洗衣粉、沐浴乳、洗髮精、抹布、成人奶粉、嬰兒奶粉、罐頭、食用油、醬油調味料、成人紙尿布、嬰兒紙尿布、衛生紙/棉",
        "notes": "列表為建議捐贈品，實際狀況請恰分店人員。",
        "maps_url": "https://maps.apple/p/yU8hFkgyIH9cgT"
      },
      {
        "name": "大雅民生二店（超市）",
        "address": "428 台中市大雅區上雅村民生路一段37號",
        "hours": "無",
        "phone": "04-2560-3900",
        "fax": "04-2568-0160",
        "coordinates": "24.2262242,120.6467911",
        "transportation": "無",
        "parking": "無",
        "accepted_items": "米、麵條、麥片、糖、鹽、料理包、泡麵、牙膏、牙刷、肥皂、毛巾、家用清潔劑、洗衣粉、沐浴乳、洗髮精、抹布、成人奶粉、嬰兒奶粉、罐頭、食用油、醬油調味料、成人紙尿布、嬰兒紙尿布、衛生紙/棉",
        "notes": "列表為建議捐贈品，實際狀況請恰分店人員。",
        "maps_url": "https://maps.apple/p/yU8hFkgyIH9cgT"
      },
      {
        "name": "沙鹿店（量販）",
        "address": "433 台中市沙鹿區光華路336號",
        "hours": "公車：台中客運 93路-童綜合醫院站下車、88路-沙鹿高工站 或 鹿寮國中站下車、57路-沙鹿高工站下車 & 巨業客運 168路-童綜合醫院站 或 沙鹿高工站下車、169路-沙鹿高工站下車 & 統聯客運 83路-沙鹿高工站 光大公園站 或 鹿寮國中站下車、87路-沙鹿高工站下車",
        "phone": "04-2665-2300",
        "fax": "04-2665-2301",
        "coordinates": "24.2424387,120.5652321",
        "transportation": "公車：台中客運 93路-童綜合醫院站下車、88路-沙鹿高工站 或 鹿寮國中站下車、57路-沙鹿高工站下車 & 巨業客運 168路-童綜合醫院站 或 沙鹿高工站下車、169路-沙鹿高工站下車 & 統聯客運 83路-沙鹿高工站 光大公園站 或 鹿寮國中站下車、87路-沙鹿高工站下車",
        "parking": "汽車200位、機車240位、殘障4位、親子5位。",
        "accepted_items": "米、麵條、麥片、糖、鹽、料理包、泡麵、牙膏、牙刷、肥皂、毛巾、家用清潔劑、洗衣粉、沐浴乳、洗髮精、抹布、成人奶粉、嬰兒奶粉、罐頭、食用油、醬油調味料、成人紙尿布、嬰兒紙尿布、衛生紙/棉、貓狗飼料和罐頭",
        "notes": "列表為建議捐贈品，實際狀況請恰分店人員。詳情：https://www.carrefour.com.tw/store-info/?store=沙鹿店#tab=info",
        "maps_url": "https://maps.apple/p/mmH7xByITAMEan"
      },
      {
        "name": "大甲蔣公店（超市）",
        "address": "437 台中市大甲區蔣公路295號",
        "hours": "公車：光田醫院(大甲院區)站 616，181   下車步行約3分鐘",
        "phone": "04-2687-0392",
        "fax": "04-2687-0395",
        "coordinates": "24.3477238,120.6175629",
        "transportation": "公車：光田醫院(大甲院區)站 616，181   下車步行約3分鐘",
        "parking": "汽車10位、機車25位。",
        "accepted_items": "米、麵條、麥片、糖、鹽、料理包、泡麵、牙膏、牙刷、肥皂、毛巾、家用清潔劑、洗衣粉、沐浴乳、洗髮精、抹布、成人奶粉、嬰兒奶粉、罐頭、食用油、醬油調味料、成人紙尿布、嬰兒紙尿布、衛生紙/棉",
        "notes": "列表為建議捐贈品，實際狀況請恰分店人員。",
        "maps_url": "https://maps.apple/p/PPf0njx-8aH9vm"
      },
      {
        "name": "彰化店（量販）",
        "address": "500 彰化縣彰化市金馬路二段321號",
        "hours": "無",
        "phone": "04-736-7397",
        "fax": "04-736-7400",
        "coordinates": "24.09448,120.5424188",
        "transportation": "無",
        "parking": "汽車564位、殘障12位、親子12位。",
        "accepted_items": "米、麵條、麥片、糖、鹽、料理包、泡麵、牙膏、牙刷、肥皂、毛巾、家用清潔劑、洗衣粉、沐浴乳、洗髮精、抹布、成人奶粉、嬰兒奶粉、罐頭、食用油、醬油調味料、成人紙尿布、嬰兒紙尿布、衛生紙/棉、貓狗飼料和罐頭",
        "notes": "列表為建議捐贈品，實際狀況請恰分店人員。詳情：https://www.carrefour.com.tw/store-info/?store=彰化店#tab=info",
        "maps_url": "https://maps.apple/p/5snPkG31n2_eBj"
      },
      {
        "name": "員林博愛店（超市）",
        "address": "510 彰化縣員林市博愛路185號",
        "hours": "無",
        "phone": "04-833-7848",
        "fax": "04-833-8829",
        "coordinates": "23.9610407,120.572586",
        "transportation": "無",
        "parking": "無",
        "accepted_items": "米、麵條、麥片、糖、鹽、料理包、泡麵、牙膏、牙刷、肥皂、毛巾、家用清潔劑、洗衣粉、沐浴乳、洗髮精、抹布、成人奶粉、嬰兒奶粉、罐頭、食用油、醬油調味料、成人紙尿布、嬰兒紙尿布、衛生紙/棉",
        "notes": "列表為建議捐贈品，實際狀況請恰分店人員。",
        "maps_url": "https://maps.apple/p/D~qvz1U9aXFA1m"
      },
      {
        "name": "南投店（量販）",
        "address": "540 南投縣南投市三和三路21號",
        "hours": "公車：彰化客運",
        "phone": "04-9224-5318",
        "fax": "04-9224-5317",
        "coordinates": "23.9058054,120.689387",
        "transportation": "公車：彰化客運",
        "parking": "汽車550位、殘障11位、親子14位。40元/小時。",
        "accepted_items": "米、麵條、麥片、糖、鹽、料理包、泡麵、牙膏、牙刷、肥皂、毛巾、家用清潔劑、洗衣粉、沐浴乳、洗髮精、抹布、成人奶粉、嬰兒奶粉、罐頭、食用油、醬油調味料、成人紙尿布、嬰兒紙尿布、衛生紙/棉、貓狗飼料和罐頭",
        "notes": "列表為建議捐贈品，實際狀況請恰分店人員。詳情：https://www.carrefour.com.tw/store-info/?store=南投店#tab=info",
        "maps_url": "https://maps.apple/p/Hs~Aqp1v1rjy.t"
      },
      {
        "name": "埔里店（量販）",
        "address": "545 南投縣埔里鎮信義路1029號",
        "hours": "無",
        "phone": "04-9291-2088",
        "fax": "04-9291-2008",
        "coordinates": "23.9707957,120.9571861",
        "transportation": "無",
        "parking": "汽車129位、機車105位、殘障3位。40元/小時。",
        "accepted_items": "米、麵條、麥片、糖、鹽、料理包、泡麵、牙膏、牙刷、肥皂、毛巾、家用清潔劑、洗衣粉、沐浴乳、洗髮精、抹布、成人奶粉、嬰兒奶粉、罐頭、食用油、醬油調味料、成人紙尿布、嬰兒紙尿布、衛生紙/棉、貓狗飼料和罐頭",
        "notes": "列表為建議捐贈品，實際狀況請恰分店人員。詳情：https://www.carrefour.com.tw/store-info/?store=埔里店#tab=info",
        "maps_url": "https://maps.apple/p/nV-V9vbaws0pW1"
      },
      {
        "name": "嘉義仁愛店（超市）",
        "address": "600 嘉義市西區仁愛路211、213號",
        "hours": "無",
        "phone": "05-285-0171、05-285-0190",
        "fax": "05-285-0112",
        "coordinates": "23.4707014,120.4426187",
        "transportation": "無",
        "parking": "無",
        "accepted_items": "米、麵條、麥片、糖、鹽、料理包、泡麵、牙膏、牙刷、肥皂、毛巾、家用清潔劑、洗衣粉、沐浴乳、洗髮精、抹布、成人奶粉、嬰兒奶粉、罐頭、食用油、醬油調味料、成人紙尿布、嬰兒紙尿布、衛生紙/棉",
        "notes": "列表為建議捐贈品，實際狀況請恰分店人員。",
        "maps_url": "https://maps.apple/p/ck3ad_UpoVDP6U"
      },
      {
        "name": "嘉義店（量販）",
        "address": "600 嘉義市西區博愛路二段461號",
        "hours": "無",
        "phone": "05-235-3606",
        "fax": "05-286-3550",
        "coordinates": "23.4713108,120.4311905",
        "transportation": "無",
        "parking": "汽車741位、殘障20位、親子19位。50元/小時。",
        "accepted_items": "米、麵條、麥片、糖、鹽、料理包、泡麵、牙膏、牙刷、肥皂、毛巾、家用清潔劑、洗衣粉、沐浴乳、洗髮精、抹布、成人奶粉、嬰兒奶粉、罐頭、食用油、醬油調味料、成人紙尿布、嬰兒紙尿布、衛生紙/棉、貓狗飼料和罐頭",
        "notes": "列表為建議捐贈品，實際狀況請恰分店人員。詳情：https://www.carrefour.com.tw/store-info/?store=嘉義店#tab=info",
        "maps_url": "https://maps.apple/p/Z9331wMRNbRVrQ"
      },
      {
        "name": "嘉義德明店（超市）",
        "address": "600 嘉義市西區德明路128-132號",
        "hours": "無",
        "phone": "05-231-5457、05-231-1739",
        "fax": "05-291-1287",
        "coordinates": "23.4831431,120.4319083",
        "transportation": "無",
        "parking": "無",
        "accepted_items": "米、麵條、麥片、糖、鹽、料理包、泡麵、牙膏、牙刷、肥皂、毛巾、家用清潔劑、洗衣粉、沐浴乳、洗髮精、抹布、成人奶粉、嬰兒奶粉、罐頭、食用油、醬油調味料、成人紙尿布、嬰兒紙尿布、衛生紙/棉",
        "notes": "列表為建議捐贈品，實際狀況請恰分店人員。",
        "maps_url": "https://maps.apple/p/neCon7rFfiURGL"
      },
      {
        "name": "嘉義民族店（超市）",
        "address": "600 嘉義市西區民族路610號",
        "hours": "無",
        "phone": "05-320-9020",
        "fax": "05-227-8850",
        "coordinates": "23.4757153,120.4455932",
        "transportation": "無",
        "parking": "無",
        "accepted_items": "米、麵條、麥片、糖、鹽、料理包、泡麵、牙膏、牙刷、肥皂、毛巾、家用清潔劑、洗衣粉、沐浴乳、洗髮精、抹布、成人奶粉、嬰兒奶粉、罐頭、食用油、醬油調味料、成人紙尿布、嬰兒紙尿布、衛生紙/棉",
        "notes": "列表為建議捐贈品，實際狀況請恰分店人員。",
        "maps_url": "https://maps.apple/p/jL.-4YtwN0z_3d"
      },
      {
        "name": "太保祥和店（超市）",
        "address": "612 嘉義縣太保市太保二路111號",
        "hours": "無",
        "phone": "05-320-4432",
        "fax": "無",
        "coordinates": "23.4565421,120.2953771",
        "transportation": "無",
        "parking": "無",
        "accepted_items": "米、麵條、麥片、糖、鹽、料理包、泡麵、牙膏、牙刷、肥皂、毛巾、家用清潔劑、洗衣粉、沐浴乳、洗髮精、抹布、成人奶粉、嬰兒奶粉、罐頭、食用油、醬油調味料、成人紙尿布、嬰兒紙尿布、衛生紙/棉",
        "notes": "列表為建議捐贈品，實際狀況請恰分店人員。",
        "maps_url": "https://maps.apple/p/QhhmnUnI.N3Rws"
      },
      {
        "name": "虎尾店（量販）",
        "address": "632 雲林縣虎尾鎮立新街96號",
        "hours": "公車：虎科大天橋 市區公車7123路(斗六-北港)",
        "phone": "05-633-1089",
        "fax": "05-633-2089",
        "coordinates": "23.7049892,120.426693",
        "transportation": "公車：虎科大天橋 市區公車7123路(斗六-北港)",
        "parking": "汽車50位、機車60位、殘障2位、親子2位。",
        "accepted_items": "米、麵條、麥片、糖、鹽、料理包、泡麵、牙膏、牙刷、肥皂、毛巾、家用清潔劑、洗衣粉、沐浴乳、洗髮精、抹布、成人奶粉、嬰兒奶粉、罐頭、食用油、醬油調味料、成人紙尿布、嬰兒紙尿布、衛生紙/棉、貓狗飼料和罐頭",
        "notes": "列表為建議捐贈品，實際狀況請恰分店人員。詳情：https://www.carrefour.com.tw/store-info/?store=虎尾店#tab=info",
        "maps_url": "https://maps.apple/p/9PphQ76DEEp7Bs"
      },
      {
        "name": "斗六店（量販）",
        "address": "640 雲林縣斗六市雲林路二段297號",
        "hours": "公車：101斗六市西環 或 7124斗六-北勢子-北港，於斗六 慈濟門診中心站 下車，對面家樂福",
        "phone": "05-537-5500",
        "fax": "05-537-5151",
        "coordinates": "23.7016837,120.5305295",
        "transportation": "公車：101斗六市西環 或 7124斗六-北勢子-北港，於斗六 慈濟門診中心站 下車，對面家樂福",
        "parking": "汽車689位、殘障14位、親子14位。汽車 30元/小時。",
        "accepted_items": "米、麵條、麥片、糖、鹽、料理包、泡麵、牙膏、牙刷、肥皂、毛巾、家用清潔劑、洗衣粉、沐浴乳、洗髮精、抹布、成人奶粉、嬰兒奶粉、罐頭、食用油、醬油調味料、成人紙尿布、嬰兒紙尿布、衛生紙/棉、貓狗飼料和罐頭",
        "notes": "列表為建議捐贈品，實際狀況請恰分店人員。詳情：https://www.carrefour.com.tw/store-info/?store=斗六店#tab=info",
        "maps_url": "https://maps.apple/p/Mrz-ItMaeceSN6"
      },
      {
        "name": "北港店（量販）",
        "address": "651 雲林縣北港鎮華南路101號",
        "hours": "公車：嘉義客運到北港站下車，文化路接中正路直走到底，左轉接華南路，家樂福在右前方（約450公尺）",
        "phone": "05-783-0163",
        "fax": "05-783-0081",
        "coordinates": "23.5702457,120.2991982",
        "transportation": "公車：嘉義客運到北港站下車，文化路接中正路直走到底，左轉接華南路，家樂福在右前方（約450公尺）",
        "parking": "汽車267位、殘障17位。20元/半小時。",
        "accepted_items": "米、麵條、麥片、糖、鹽、料理包、泡麵、牙膏、牙刷、肥皂、毛巾、家用清潔劑、洗衣粉、沐浴乳、洗髮精、抹布、成人奶粉、嬰兒奶粉、罐頭、食用油、醬油調味料、成人紙尿布、嬰兒紙尿布、衛生紙/棉、貓狗飼料和罐頭",
        "notes": "列表為建議捐贈品，實際狀況請恰分店人員。詳情：https://www.carrefour.com.tw/store-info/?store=北港店#tab=info",
        "maps_url": "https://maps.apple/p/RnXjFnU5eKV4Bw"
      },
      {
        "name": "安平店（量販）",
        "address": "700 台南市中西區中華西路2段16號",
        "hours": "公車：家樂福站 0左，0右，06，10",
        "phone": "06-295-7588",
        "fax": "06-299-0589",
        "coordinates": "22.9884027,120.1873968",
        "transportation": "公車：家樂福站 0左，0右，06，10",
        "parking": "汽車589位、機車500位、殘障7位、親子7位。",
        "accepted_items": "米、麵條、麥片、糖、鹽、料理包、泡麵、牙膏、牙刷、肥皂、毛巾、家用清潔劑、洗衣粉、沐浴乳、洗髮精、抹布、成人奶粉、嬰兒奶粉、罐頭、食用油、醬油調味料、成人紙尿布、嬰兒紙尿布、衛生紙/棉、貓狗飼料和罐頭",
        "notes": "列表為建議捐贈品，實際狀況請恰分店人員。詳情：https://www.carrefour.com.tw/store-info/?store=安平店#tab=info",
        "maps_url": "https://maps.apple/p/~avk6tD3xCcdYM"
      },
      {
        "name": "莊敬店（超市）",
        "address": "701 台南市東區莊敬路118號1樓",
        "hours": "公車：國賓影城站 15，座落地點 金礦咖啡對面",
        "phone": "06-236-9528",
        "fax": "06-236-9881",
        "coordinates": "22.9955605,120.2332361",
        "transportation": "公車：國賓影城站 15，座落地點 金礦咖啡對面",
        "parking": "機車20位。",
        "accepted_items": "米、麵條、麥片、糖、鹽、料理包、泡麵、牙膏、牙刷、肥皂、毛巾、家用清潔劑、洗衣粉、沐浴乳、洗髮精、抹布、成人奶粉、嬰兒奶粉、罐頭、食用油、醬油調味料、成人紙尿布、嬰兒紙尿布、衛生紙/棉",
        "notes": "列表為建議捐贈品，實際狀況請恰分店人員。",
        "maps_url": "https://maps.apple/p/ioF9bTE0~-.rA1"
      },
      {
        "name": "台南裕農店（超市）",
        "address": "701 台南市東區裕農路766號",
        "hours": "無",
        "phone": "06-331-5595",
        "fax": "06-331-5597",
        "coordinates": "22.9888114,120.2386357",
        "transportation": "無",
        "parking": "無",
        "accepted_items": "米、麵條、麥片、糖、鹽、料理包、泡麵、牙膏、牙刷、肥皂、毛巾、家用清潔劑、洗衣粉、沐浴乳、洗髮精、抹布、成人奶粉、嬰兒奶粉、罐頭、食用油、醬油調味料、成人紙尿布、嬰兒紙尿布、衛生紙/棉",
        "notes": "列表為建議捐贈品，實際狀況請恰分店人員。",
        "maps_url": "https://maps.apple/p/NSmcIJIAH_9LmL"
      },
      {
        "name": "台南北安店（超市）",
        "address": "704 台南市北區北安路一段167號",
        "hours": "無",
        "phone": "06-251-8022",
        "fax": "06-251-8322",
        "coordinates": "23.0174748,120.2086677",
        "transportation": "無",
        "parking": "機車10位。",
        "accepted_items": "米、麵條、麥片、糖、鹽、料理包、泡麵、牙膏、牙刷、肥皂、毛巾、家用清潔劑、洗衣粉、沐浴乳、洗髮精、抹布、成人奶粉、嬰兒奶粉、罐頭、食用油、醬油調味料、成人紙尿布、嬰兒紙尿布、衛生紙/棉",
        "notes": "列表為建議捐贈品，實際狀況請恰分店人員。",
        "maps_url": "https://maps.apple/p/n0h52whEuYqKtH"
      },
      {
        "name": "台南開元店（超市）",
        "address": "704 台南市北區開元路501號",
        "hours": "公車：崑山中學站 綠幹線台南玉井線，市區公車5",
        "phone": "06-209-3057",
        "fax": "06-209-3067",
        "coordinates": "23.0104607,120.2248359",
        "transportation": "公車：崑山中學站 綠幹線台南玉井線，市區公車5",
        "parking": "機車20位、殘障10位。",
        "accepted_items": "米、麵條、麥片、糖、鹽、料理包、泡麵、牙膏、牙刷、肥皂、毛巾、家用清潔劑、洗衣粉、沐浴乳、洗髮精、抹布、成人奶粉、嬰兒奶粉、罐頭、食用油、醬油調味料、成人紙尿布、嬰兒紙尿布、衛生紙/棉",
        "notes": "列表為建議捐贈品，實際狀況請恰分店人員。",
        "maps_url": "https://maps.apple/p/B78f3FBcXu7.aR"
      },
      {
        "name": "永康二王店（超市）",
        "address": "710 台南市永康區中山南路696號",
        "hours": "公車：福康新城 或 二王站   興南客運7605，7606，7607，7608，7609，7610，7611，7612，座落地點：砲兵學校",
        "phone": "06-201-6398",
        "fax": "06-201-5356",
        "coordinates": "23.0200707,120.244337",
        "transportation": "公車：福康新城 或 二王站   興南客運7605，7606，7607，7608，7609，7610，7611，7612，座落地點：砲兵學校",
        "parking": "汽車50位。",
        "accepted_items": "米、麵條、麥片、糖、鹽、料理包、泡麵、牙膏、牙刷、肥皂、毛巾、家用清潔劑、洗衣粉、沐浴乳、洗髮精、抹布、成人奶粉、嬰兒奶粉、罐頭、食用油、醬油調味料、成人紙尿布、嬰兒紙尿布、衛生紙/棉",
        "notes": "列表為建議捐贈品，實際狀況請恰分店人員。",
        "maps_url": "https://maps.apple/p/-unwXTg8M7hSWv"
      },
      {
        "name": "中正店（量販）",
        "address": "710 台南市永康區中正南路358號",
        "hours": "公車：大崎站 5，橘12",
        "phone": "06-253-8481",
        "fax": "09:00~23:00",
        "coordinates": "23.0327636,120.2284085",
        "transportation": "公車：大崎站 5，橘12",
        "parking": "汽車550位。30元/小時。滿200元免費停車1小時。",
        "accepted_items": "米、麵條、麥片、糖、鹽、料理包、泡麵、牙膏、牙刷、肥皂、毛巾、家用清潔劑、洗衣粉、沐浴乳、洗髮精、抹布、成人奶粉、嬰兒奶粉、罐頭、食用油、醬油調味料、成人紙尿布、嬰兒紙尿布、衛生紙/棉、貓狗飼料和罐頭",
        "notes": "列表為建議捐贈品，實際狀況請恰分店人員。詳情：https://www.carrefour.com.tw/store-info/?store=中正店#tab=info",
        "maps_url": "https://maps.apple/p/88WiiHtEfn45oD"
      },
      {
        "name": "中華店（量販）",
        "address": "710 台南市永康區中華二路350號B1",
        "hours": "公車：中華二路口 大台南公車15號路線",
        "phone": "06-275-6050",
        "fax": "06-236-9352",
        "coordinates": "23.0085104,120.2307978",
        "transportation": "公車：中華二路口 大台南公車15號路線",
        "parking": "汽車195位、機車224位、殘障1位、親子4位。",
        "accepted_items": "米、麵條、麥片、糖、鹽、料理包、泡麵、牙膏、牙刷、肥皂、毛巾、家用清潔劑、洗衣粉、沐浴乳、洗髮精、抹布、成人奶粉、嬰兒奶粉、罐頭、食用油、醬油調味料、成人紙尿布、嬰兒紙尿布、衛生紙/棉、貓狗飼料和罐頭",
        "notes": "列表為建議捐贈品，實際狀況請恰分店人員。詳情：https://www.carrefour.com.tw/store-info/?store=中華店#tab=info",
        "maps_url": "https://maps.apple/p/hU77iJKaMGeNMd"
      },
      {
        "name": "仁德店（量販）",
        "address": "717 台南市仁德區中山路711號",
        "hours": "見「 備註」。",
        "phone": "06-249-6666",
        "fax": "06-249-6993",
        "coordinates": "22.9725287,120.2467577",
        "transportation": "見「 備註」。",
        "parking": "汽車503位、殘障16位、親子10位。40元/小時。",
        "accepted_items": "米、麵條、麥片、糖、鹽、料理包、泡麵、牙膏、牙刷、肥皂、毛巾、家用清潔劑、洗衣粉、沐浴乳、洗髮精、抹布、成人奶粉、嬰兒奶粉、罐頭、食用油、醬油調味料、成人紙尿布、嬰兒紙尿布、衛生紙/棉、貓狗飼料和罐頭",
        "notes": "交通和停車詳情：https://www.carrefour.com.tw/store-info/?store=仁德店#tab=info 。列表為建議捐贈品，實際狀況請恰分店人員。",
        "maps_url": "https://maps.apple/p/AiTtDMFahb9YUp"
      },
      {
        "name": "新仁店（量販）",
        "address": "717 台南市仁德區大同路三段755號",
        "hours": "公車：家樂福新仁店站 大台南公車 紅3-1",
        "phone": "06-289-1265",
        "fax": "06-289-1267",
        "coordinates": "22.9469805,120.2202236",
        "transportation": "公車：家樂福新仁店站 大台南公車 紅3-1",
        "parking": "汽車736位、殘障10位、親子26位。20元/半小時。",
        "accepted_items": "米、麵條、麥片、糖、鹽、料理包、泡麵、牙膏、牙刷、肥皂、毛巾、家用清潔劑、洗衣粉、沐浴乳、洗髮精、抹布、成人奶粉、嬰兒奶粉、罐頭、食用油、醬油調味料、成人紙尿布、嬰兒紙尿布、衛生紙/棉、貓狗飼料和罐頭",
        "notes": "列表為建議捐贈品，實際狀況請恰分店人員。詳情：https://www.carrefour.com.tw/store-info/?store=新仁店#tab=info",
        "maps_url": "https://maps.apple/p/GQWBcwBALm29w1"
      },
      {
        "name": "新營店（量販）",
        "address": "730 台南市新營區健康路251號",
        "hours": "無",
        "phone": "06-656-9435",
        "fax": "06-657-1565",
        "coordinates": "23.3193492,120.3118035",
        "transportation": "無",
        "parking": "汽車303位、機車228位、殘障6位、親子5位。",
        "accepted_items": "米、麵條、麥片、糖、鹽、料理包、泡麵、牙膏、牙刷、肥皂、毛巾、家用清潔劑、洗衣粉、沐浴乳、洗髮精、抹布、成人奶粉、嬰兒奶粉、罐頭、食用油、醬油調味料、成人紙尿布、嬰兒紙尿布、衛生紙/棉、貓狗飼料和罐頭",
        "notes": "列表為建議捐贈品，實際狀況請恰分店人員。詳情：https://www.carrefour.com.tw/store-info/?store=新營店#tab=info",
        "maps_url": "https://maps.apple/p/H5EWL1_ycaCh4j"
      },
      {
        "name": "新市民生店（超市）",
        "address": "744 台南市新市區富林路418號",
        "hours": "無",
        "phone": "06 703 1399",
        "fax": "無",
        "coordinates": "23.0795537,120.2894728",
        "transportation": "無",
        "parking": "汽車5位、機車30位、殘障1位。40元/小時。",
        "accepted_items": "米、麵條、麥片、糖、鹽、料理包、泡麵、牙膏、牙刷、肥皂、毛巾、家用清潔劑、洗衣粉、沐浴乳、洗髮精、抹布、成人奶粉、嬰兒奶粉、罐頭、食用油、醬油調味料、成人紙尿布、嬰兒紙尿布、衛生紙/棉",
        "notes": "列表為建議捐贈品，實際狀況請恰分店人員。",
        "maps_url": "https://maps.apple/p/aUq0FAyjvUPDVC"
      },
      {
        "name": "高雄南屏店（超市）",
        "address": "804 高雄市鼓山區南屏路551號",
        "hours": "無",
        "phone": "07-553-7845、07-553-6427",
        "fax": "07-553-3469",
        "coordinates": "22.663682,120.3003382",
        "transportation": "無",
        "parking": "無",
        "accepted_items": "米、麵條、麥片、糖、鹽、料理包、泡麵、牙膏、牙刷、肥皂、毛巾、家用清潔劑、洗衣粉、沐浴乳、洗髮精、抹布、成人奶粉、嬰兒奶粉、罐頭、食用油、醬油調味料、成人紙尿布、嬰兒紙尿布、衛生紙/棉",
        "notes": "列表為建議捐贈品，實際狀況請恰分店人員。",
        "maps_url": "https://maps.apple/p/7WNcLjI~Uup7Jg"
      },
      {
        "name": "高雄美術東店（超市）",
        "address": "804 高雄市鼓山區美術東二路175號",
        "hours": "無",
        "phone": "07-522-5546、07-522-2434",
        "fax": "07-522-4010",
        "coordinates": "22.6621903,120.2883177",
        "transportation": "無",
        "parking": "無",
        "accepted_items": "米、麵條、麥片、糖、鹽、料理包、泡麵、牙膏、牙刷、肥皂、毛巾、家用清潔劑、洗衣粉、沐浴乳、洗髮精、抹布、成人奶粉、嬰兒奶粉、罐頭、食用油、醬油調味料、成人紙尿布、嬰兒紙尿布、衛生紙/棉",
        "notes": "列表為建議捐贈品，實際狀況請恰分店人員。",
        "maps_url": "https://maps.apple/p/Lwevv9YVH.v9Ue"
      },
      {
        "name": "成功店（量販）",
        "address": "806 高雄市前鎮區中華五路1111號",
        "hours": "公車：見「備註」；捷運：高雄捷運紅線 獅甲站 4號出口，往中華路方向步行約10分鐘，即可抵達。",
        "phone": "07-536-9828",
        "fax": "07-537-9000",
        "coordinates": "22.6049661,120.3042167",
        "transportation": "公車：見「備註」；捷運：高雄捷運紅線 獅甲站 4號出口，往中華路方向步行約10分鐘，即可抵達。",
        "parking": "汽車398位、殘障7位、親子12位。30元/半小時。",
        "accepted_items": "米、麵條、麥片、糖、鹽、料理包、泡麵、牙膏、牙刷、肥皂、毛巾、家用清潔劑、洗衣粉、沐浴乳、洗髮精、抹布、成人奶粉、嬰兒奶粉、罐頭、食用油、醬油調味料、成人紙尿布、嬰兒紙尿布、衛生紙/棉、貓狗飼料和罐頭",
        "notes": "交通和停車詳情：https://www.carrefour.com.tw/store-info/?store=成功店#tab=info 。列表為建議捐贈品，實際狀況請恰分店人員。",
        "maps_url": "https://maps.apple/p/s1LP7dNdcoy7oT"
      },
      {
        "name": "光華店（量販）",
        "address": "806 高雄市前鎮區光華二路157號",
        "hours": "公車 + 捷運：捷運獅甲站1號出口搭乘班次密集的 東南客運 紅16 公車，於 聯勤大樓 下車，斜對面是 家樂福。",
        "phone": "07-330-6189",
        "fax": "07-330-6389",
        "coordinates": "22.6113248,120.3172165",
        "transportation": "公車 + 捷運：捷運獅甲站1號出口搭乘班次密集的 東南客運 紅16 公車，於 聯勤大樓 下車，斜對面是 家樂福。",
        "parking": "汽車330位、機車600位。40元/小時。",
        "accepted_items": "米、麵條、麥片、糖、鹽、料理包、泡麵、牙膏、牙刷、肥皂、毛巾、家用清潔劑、洗衣粉、沐浴乳、洗髮精、抹布、成人奶粉、嬰兒奶粉、罐頭、食用油、醬油調味料、成人紙尿布、嬰兒紙尿布、衛生紙/棉、貓狗飼料和罐頭",
        "notes": "列表為建議捐贈品，實際狀況請恰分店人員。詳情：https://www.carrefour.com.tw/store-info/?store=光華店#tab=info",
        "maps_url": "https://maps.apple/p/PsXWvhXm-Em8Fw"
      },
      {
        "name": "高雄九如1店（超市）",
        "address": "807 高雄市三民區九如一路886號",
        "hours": "公車：民族陸橋站 紅28，60 覺民幹線，再步行約5分鐘",
        "phone": "07-380-6307",
        "fax": "07-380-6307#117",
        "coordinates": "22.6403352,120.3179214",
        "transportation": "公車：民族陸橋站 紅28，60 覺民幹線，再步行約5分鐘",
        "parking": "汽車7位、機車18位。汽車 40元/小時。",
        "accepted_items": "米、麵條、麥片、糖、鹽、料理包、泡麵、牙膏、牙刷、肥皂、毛巾、家用清潔劑、洗衣粉、沐浴乳、洗髮精、抹布、成人奶粉、嬰兒奶粉、罐頭、食用油、醬油調味料、成人紙尿布、嬰兒紙尿布、衛生紙/棉",
        "notes": "列表為建議捐贈品，實際狀況請恰分店人員。",
        "maps_url": "https://maps.apple/p/wDDiE3dM7z6DwM"
      },
      {
        "name": "高雄大豐二店（超市）",
        "address": "807 高雄市三民區大豐二路298號",
        "hours": "無",
        "phone": "07-383-8374、07-383-4447",
        "fax": "07-383-5749",
        "coordinates": "22.6456019,120.3333569",
        "transportation": "無",
        "parking": "無",
        "accepted_items": "米、麵條、麥片、糖、鹽、料理包、泡麵、牙膏、牙刷、肥皂、毛巾、家用清潔劑、洗衣粉、沐浴乳、洗髮精、抹布、成人奶粉、嬰兒奶粉、罐頭、食用油、醬油調味料、成人紙尿布、嬰兒紙尿布、衛生紙/棉",
        "notes": "列表為建議捐贈品，實際狀況請恰分店人員。",
        "maps_url": "https://maps.apple/p/VPjyAGcwE49KSB"
      },
      {
        "name": "鼎山店（量販）",
        "address": "807 高雄市三民區大順二路849號",
        "hours": "公車：家樂福鼎山站 168環狀",
        "phone": "07-394-5588",
        "fax": "07-392-5468",
        "coordinates": "22.652692,120.3189119",
        "transportation": "公車：家樂福鼎山站 168環狀",
        "parking": "汽車400位、殘障4位、親子8位。40元/小時。",
        "accepted_items": "米、麵條、麥片、糖、鹽、料理包、泡麵、牙膏、牙刷、肥皂、毛巾、家用清潔劑、洗衣粉、沐浴乳、洗髮精、抹布、成人奶粉、嬰兒奶粉、罐頭、食用油、醬油調味料、成人紙尿布、嬰兒紙尿布、衛生紙/棉、貓狗飼料和罐頭",
        "notes": "列表為建議捐贈品，實際狀況請恰分店人員。詳情：https://www.carrefour.com.tw/store-info/?store=鼎山店#tab=info",
        "maps_url": "https://maps.apple/p/N.sqZIWf-rkXAp"
      },
      {
        "name": "高雄天祥店（超市）",
        "address": "807 高雄市三民區天祥一路102號",
        "hours": "無",
        "phone": "07-359-9258",
        "fax": "07-359-9838",
        "coordinates": "22.667637,120.3203389",
        "transportation": "無",
        "parking": "無",
        "accepted_items": "米、麵條、麥片、糖、鹽、料理包、泡麵、牙膏、牙刷、肥皂、毛巾、家用清潔劑、洗衣粉、沐浴乳、洗髮精、抹布、成人奶粉、嬰兒奶粉、罐頭、食用油、醬油調味料、成人紙尿布、嬰兒紙尿布、衛生紙/棉",
        "notes": "列表為建議捐贈品，實際狀況請恰分店人員。",
        "maps_url": "https://maps.apple/p/IGhtZkqIwsD8EZ"
      },
      {
        "name": "三民建工店（超市）",
        "address": "807 高雄市三民區建工路497號",
        "hours": "無",
        "phone": "07-971-4040",
        "fax": "07-380-8326",
        "coordinates": "22.6487676,120.3225799",
        "transportation": "無",
        "parking": "無",
        "accepted_items": "米、麵條、麥片、糖、鹽、料理包、泡麵、牙膏、牙刷、肥皂、毛巾、家用清潔劑、洗衣粉、沐浴乳、洗髮精、抹布、成人奶粉、嬰兒奶粉、罐頭、食用油、醬油調味料、成人紙尿布、嬰兒紙尿布、衛生紙/棉",
        "notes": "列表為建議捐贈品，實際狀況請恰分店人員。",
        "maps_url": "https://maps.apple/p/vqeIjFTfbQ_qqa"
      },
      {
        "name": "愛河店（量販）",
        "address": "807 高雄市三民區河東路356號",
        "hours": "公車：河濱國小站 高雄市建國幹線紅27路公車，高雄市88路公車，高雄市168西路公車",
        "phone": "07-272-5066",
        "fax": "07-272-0342",
        "coordinates": "22.634149,120.2859499",
        "transportation": "公車：河濱國小站 高雄市建國幹線紅27路公車，高雄市88路公車，高雄市168西路公車",
        "parking": "汽車300位、殘障9位、親子6位。40元/小時。",
        "accepted_items": "米、麵條、麥片、糖、鹽、料理包、泡麵、牙膏、牙刷、肥皂、毛巾、家用清潔劑、洗衣粉、沐浴乳、洗髮精、抹布、成人奶粉、嬰兒奶粉、罐頭、食用油、醬油調味料、成人紙尿布、嬰兒紙尿布、衛生紙/棉、貓狗飼料和罐頭",
        "notes": "列表為建議捐贈品，實際狀況請恰分店人員。詳情：https://www.carrefour.com.tw/store-info/?store=愛河店#tab=info",
        "maps_url": "https://maps.apple/p/ugab_coawo36vk"
      },
      {
        "name": "澄清店（量販）",
        "address": "807 高雄市三民區澄清路635號",
        "hours": "公車：澄清澄和路口 港都客運，70 三多幹線，217新昌幹線，高雄客運，60覺民幹線",
        "phone": "07-394-3858",
        "fax": "07-394-3669",
        "coordinates": "22.6438833,120.3458816",
        "transportation": "公車：澄清澄和路口 港都客運，70 三多幹線，217新昌幹線，高雄客運，60覺民幹線",
        "parking": "汽車48位、殘障3位、親子1位。50元/小時。",
        "accepted_items": "米、麵條、麥片、糖、鹽、料理包、泡麵、牙膏、牙刷、肥皂、毛巾、家用清潔劑、洗衣粉、沐浴乳、洗髮精、抹布、成人奶粉、嬰兒奶粉、罐頭、食用油、醬油調味料、成人紙尿布、嬰兒紙尿布、衛生紙/棉、貓狗飼料和罐頭",
        "notes": "列表為建議捐贈品，實際狀況請恰分店人員。詳情：https://www.carrefour.com.tw/store-info/?store=澄清店#tab=info",
        "maps_url": "https://maps.apple/p/W~XE0Mwpb-VPn1"
      },
      {
        "name": "高雄鼎金店（超市）",
        "address": "807 高雄市三民區鼎山街259號",
        "hours": "無",
        "phone": "07-971-4050",
        "fax": "07-380-3117",
        "coordinates": "22.658662,120.322157",
        "transportation": "無",
        "parking": "汽車30位、機車30位。滿399元免費停車1小時。",
        "accepted_items": "米、麵條、麥片、糖、鹽、料理包、泡麵、牙膏、牙刷、肥皂、毛巾、家用清潔劑、洗衣粉、沐浴乳、洗髮精、抹布、成人奶粉、嬰兒奶粉、罐頭、食用油、醬油調味料、成人紙尿布、嬰兒紙尿布、衛生紙/棉",
        "notes": "列表為建議捐贈品，實際狀況請恰分店人員。",
        "maps_url": "https://maps.apple/p/8LW3QSxvBPMq9U"
      },
      {
        "name": "新楠店（量販）",
        "address": "811 高雄市楠梓區土庫一路60號",
        "hours": "公車：家樂福新楠店 紅58，29，97",
        "phone": "07-351-8006",
        "fax": "07-351-7935",
        "coordinates": "22.7361709,120.3309669",
        "transportation": "公車：家樂福新楠店 紅58，29，97",
        "parking": "汽車480位、機車480位、殘障12位、親子12位。",
        "accepted_items": "米、麵條、麥片、糖、鹽、料理包、泡麵、牙膏、牙刷、肥皂、毛巾、家用清潔劑、洗衣粉、沐浴乳、洗髮精、抹布、成人奶粉、嬰兒奶粉、罐頭、食用油、醬油調味料、成人紙尿布、嬰兒紙尿布、衛生紙/棉、貓狗飼料和罐頭",
        "notes": "列表為建議捐贈品，實際狀況請恰分店人員。詳情：https://www.carrefour.com.tw/store-info/?store=新楠店#tab=info",
        "maps_url": "https://maps.apple/p/qcLmR1tr.vvGuQ"
      },
      {
        "name": "楠梓益群店（超市）",
        "address": "811 高雄市楠梓區益群路50號",
        "hours": "公車：外環西路站 28",
        "phone": "07-301-1317",
        "fax": "07-301-1310",
        "coordinates": "22.7245094,120.2973417",
        "transportation": "公車：外環西路站 28",
        "parking": "機車10位。",
        "accepted_items": "米、麵條、麥片、糖、鹽、料理包、泡麵、牙膏、牙刷、肥皂、毛巾、家用清潔劑、洗衣粉、沐浴乳、洗髮精、抹布、成人奶粉、嬰兒奶粉、罐頭、食用油、醬油調味料、成人紙尿布、嬰兒紙尿布、衛生紙/棉",
        "notes": "列表為建議捐贈品，實際狀況請恰分店人員。",
        "maps_url": "https://maps.apple/p/RhGgvPRgXTjUrf"
      },
      {
        "name": "楠梓店（量販）",
        "address": "811 高雄市楠梓區藍田路288號",
        "hours": "公車：中山高中站 紅56A線、藍田路站 紅56B線；捷運：R19楠梓加工區站",
        "phone": "07-591-1899",
        "fax": "07-591-1178",
        "coordinates": "22.7274996,120.2909762",
        "transportation": "公車：中山高中站 紅56A線、藍田路站 紅56B線；捷運：R19楠梓加工區站",
        "parking": "汽車437位、機車387位、殘障10位、親子4位。",
        "accepted_items": "米、麵條、麥片、糖、鹽、料理包、泡麵、牙膏、牙刷、肥皂、毛巾、家用清潔劑、洗衣粉、沐浴乳、洗髮精、抹布、成人奶粉、嬰兒奶粉、罐頭、食用油、醬油調味料、成人紙尿布、嬰兒紙尿布、衛生紙/棉、貓狗飼料和罐頭",
        "notes": "列表為建議捐贈品，實際狀況請恰分店人員。詳情：https://www.carrefour.com.tw/store-info/?store=楠梓店#tab=info",
        "maps_url": "https://maps.apple/p/zyUKsu8ZNm91sQ"
      },
      {
        "name": "高雄小港店（超市）",
        "address": "812 高雄市小港區宏平路411號",
        "hours": "公車：廠邊三路口 12，紅3",
        "phone": "07-801-2597",
        "fax": "07-801-2590",
        "coordinates": "22.5696755,120.3578224",
        "transportation": "公車：廠邊三路口 12，紅3",
        "parking": "無",
        "accepted_items": "米、麵條、麥片、糖、鹽、料理包、泡麵、牙膏、牙刷、肥皂、毛巾、家用清潔劑、洗衣粉、沐浴乳、洗髮精、抹布、成人奶粉、嬰兒奶粉、罐頭、食用油、醬油調味料、成人紙尿布、嬰兒紙尿布、衛生紙/棉",
        "notes": "列表為建議捐贈品，實際狀況請恰分店人員。",
        "maps_url": "https://maps.apple/p/Tg2jkhe0eNIUeM"
      },
      {
        "name": "小港漢民店（超市）",
        "address": "812 高雄市小港區漢民路798號",
        "hours": "無",
        "phone": "07-801-7897",
        "fax": "07-801-7897#117",
        "coordinates": "22.5684512,120.3644559",
        "transportation": "無",
        "parking": "汽車15位、機車200位。汽車 20元/半小時，機車 10元/次。",
        "accepted_items": "米、麵條、麥片、糖、鹽、料理包、泡麵、牙膏、牙刷、肥皂、毛巾、家用清潔劑、洗衣粉、沐浴乳、洗髮精、抹布、成人奶粉、嬰兒奶粉、罐頭、食用油、醬油調味料、成人紙尿布、嬰兒紙尿布、衛生紙/棉",
        "notes": "列表為建議捐贈品，實際狀況請恰分店人員。",
        "maps_url": "https://maps.apple/p/zy1B7nDsPQ4Q5C"
      },
      {
        "name": "左營南屏店（超市）",
        "address": "813 高雄市左營區南屏路369號",
        "hours": "公車：三民家商站 3，16，紅36；捷運：巨蛋站",
        "phone": "07-522-3536",
        "fax": "07-522-3908",
        "coordinates": "22.6681546,120.2997543",
        "transportation": "公車：三民家商站 3，16，紅36；捷運：巨蛋站",
        "parking": "汽車8位、機車10位。",
        "accepted_items": "米、麵條、麥片、糖、鹽、料理包、泡麵、牙膏、牙刷、肥皂、毛巾、家用清潔劑、洗衣粉、沐浴乳、洗髮精、抹布、成人奶粉、嬰兒奶粉、罐頭、食用油、醬油調味料、成人紙尿布、嬰兒紙尿布、衛生紙/棉",
        "notes": "列表為建議捐贈品，實際狀況請恰分店人員。",
        "maps_url": "https://maps.apple/p/Vs9buV4kfW9rDR"
      },
      {
        "name": "左營崇德店（超市）",
        "address": "813 高雄市左營區崇德路360號",
        "hours": "公車：崇德路站 38，301，紅35，紅51",
        "phone": "07-341-5517",
        "fax": "07-341-5617",
        "coordinates": "22.6770727,120.3020763",
        "transportation": "公車：崇德路站 38，301，紅35，紅51",
        "parking": "汽車2位、機車5位。",
        "accepted_items": "米、麵條、麥片、糖、鹽、料理包、泡麵、牙膏、牙刷、肥皂、毛巾、家用清潔劑、洗衣粉、沐浴乳、洗髮精、抹布、成人奶粉、嬰兒奶粉、罐頭、食用油、醬油調味料、成人紙尿布、嬰兒紙尿布、衛生紙/棉",
        "notes": "列表為建議捐贈品，實際狀況請恰分店人員。",
        "maps_url": "https://maps.apple/p/-0_Zow3cf6ri2r"
      },
      {
        "name": "左營文上店（超市）",
        "address": "813 高雄市左營區文上路5號",
        "hours": "無",
        "phone": "07-970-9430",
        "fax": "無",
        "coordinates": "22.671643,120.3009753",
        "transportation": "無",
        "parking": "無",
        "accepted_items": "米、麵條、麥片、糖、鹽、料理包、泡麵、牙膏、牙刷、肥皂、毛巾、家用清潔劑、洗衣粉、沐浴乳、洗髮精、抹布、成人奶粉、嬰兒奶粉、罐頭、食用油、醬油調味料、成人紙尿布、嬰兒紙尿布、衛生紙/棉",
        "notes": "列表為建議捐贈品，實際狀況請恰分店人員。",
        "maps_url": "https://maps.apple/p/Y.AM2yLPAk4u9m"
      },
      {
        "name": "左營重和店（超市）",
        "address": "813 高雄市左營區文川路323號",
        "hours": "公車：警廣站 紅35，下車約15分鐘路程、近高鐵左營站，步行約10~15分鐘路程",
        "phone": "07-341-1855",
        "fax": "07-341-2126",
        "coordinates": "22.6848329,120.3124591",
        "transportation": "公車：警廣站 紅35，下車約15分鐘路程、近高鐵左營站，步行約10~15分鐘路程",
        "parking": "汽車12位、機車2位、殘障1位。20元/小時。",
        "accepted_items": "米、麵條、麥片、糖、鹽、料理包、泡麵、牙膏、牙刷、肥皂、毛巾、家用清潔劑、洗衣粉、沐浴乳、洗髮精、抹布、成人奶粉、嬰兒奶粉、罐頭、食用油、醬油調味料、成人紙尿布、嬰兒紙尿布、衛生紙/棉",
        "notes": "列表為建議捐贈品，實際狀況請恰分店人員。",
        "maps_url": "https://maps.apple/p/iUwCACAqxLf.m5"
      },
      {
        "name": "左營自由2店（超市）",
        "address": "813 高雄市左營區自由二路150號",
        "hours": "無",
        "phone": "07-556-2238",
        "fax": "07-556-2708",
        "coordinates": "22.6621601,120.3087917",
        "transportation": "無",
        "parking": "無",
        "accepted_items": "米、麵條、麥片、糖、鹽、料理包、泡麵、牙膏、牙刷、肥皂、毛巾、家用清潔劑、洗衣粉、沐浴乳、洗髮精、抹布、成人奶粉、嬰兒奶粉、罐頭、食用油、醬油調味料、成人紙尿布、嬰兒紙尿布、衛生紙/棉",
        "notes": "列表為建議捐贈品，實際狀況請恰分店人員。",
        "maps_url": "https://maps.apple/p/1zyC6dYC-2.mF4"
      },
      {
        "name": "高雄岡山店（超市）",
        "address": "820 高雄市岡山區岡山路288號",
        "hours": "公車：文賢市場 紅69A",
        "phone": "07-621-7627",
        "fax": "07-621-7625",
        "coordinates": "22.7932796,120.296394",
        "transportation": "公車：文賢市場 紅69A",
        "parking": "汽車13位、機車21位。20元/小時。",
        "accepted_items": "米、麵條、麥片、糖、鹽、料理包、泡麵、牙膏、牙刷、肥皂、毛巾、家用清潔劑、洗衣粉、沐浴乳、洗髮精、抹布、成人奶粉、嬰兒奶粉、罐頭、食用油、醬油調味料、成人紙尿布、嬰兒紙尿布、衛生紙/棉",
        "notes": "列表為建議捐贈品，實際狀況請恰分店人員。",
        "maps_url": "https://maps.apple/p/rIbvo16PMDp_.h"
      },
      {
        "name": "鳳山店（量販）",
        "address": "830 高雄市鳳山區中山西路236號",
        "hours": "公車：光復路路線 婦幼站 248路，高雄客運 & 澄清路路線 縣府站 70路，30路長庚專車，高雄客運 & 中山西路路線 省中站 248路，國光客運，高雄客運",
        "phone": "07-740-1789",
        "fax": "07-740-1677",
        "coordinates": "22.6284091,120.3480036",
        "transportation": "公車：光復路路線 婦幼站 248路，高雄客運 & 澄清路路線 縣府站 70路，30路長庚專車，高雄客運 & 中山西路路線 省中站 248路，國光客運，高雄客運",
        "parking": "汽車298位、機車308位、殘障7位、親子7位。",
        "accepted_items": "米、麵條、麥片、糖、鹽、料理包、泡麵、牙膏、牙刷、肥皂、毛巾、家用清潔劑、洗衣粉、沐浴乳、洗髮精、抹布、成人奶粉、嬰兒奶粉、罐頭、食用油、醬油調味料、成人紙尿布、嬰兒紙尿布、衛生紙/棉、貓狗飼料和罐頭",
        "notes": "列表為建議捐贈品，實際狀況請恰分店人員。詳情：https://www.carrefour.com.tw/store-info/?store=鳳山店#tab=info",
        "maps_url": "https://maps.apple/p/.X6T50_N.g3YxX"
      },
      {
        "name": "鳳山甲1店（超市）",
        "address": "830 高雄市鳳山區和興里五甲一路261號",
        "hours": "無",
        "phone": "07-719-8236",
        "fax": "07-719-8236#118",
        "coordinates": "22.6166401,120.3544223",
        "transportation": "無",
        "parking": "汽車77位、殘障2位。平日20元、假日30元 /小時。",
        "accepted_items": "米、麵條、麥片、糖、鹽、料理包、泡麵、牙膏、牙刷、肥皂、毛巾、家用清潔劑、洗衣粉、沐浴乳、洗髮精、抹布、成人奶粉、嬰兒奶粉、罐頭、食用油、醬油調味料、成人紙尿布、嬰兒紙尿布、衛生紙/棉",
        "notes": "列表為建議捐贈品，實際狀況請恰分店人員。",
        "maps_url": "https://maps.apple/p/y3DoWCecKi0ANa"
      },
      {
        "name": "五甲店（量販）",
        "address": "830 高雄市鳳山區林森路291號",
        "hours": "公車：五甲派出所站 25路",
        "phone": "07-713-8508",
        "fax": "07-713-7549",
        "coordinates": "22.5969955,120.3363116",
        "transportation": "公車：五甲派出所站 25路",
        "parking": "汽車445位、機車300位、殘障5位、親子11位。",
        "accepted_items": "米、麵條、麥片、糖、鹽、料理包、泡麵、牙膏、牙刷、肥皂、毛巾、家用清潔劑、洗衣粉、沐浴乳、洗髮精、抹布、成人奶粉、嬰兒奶粉、罐頭、食用油、醬油調味料、成人紙尿布、嬰兒紙尿布、衛生紙/棉、貓狗飼料和罐頭",
        "notes": "列表為建議捐贈品，實際狀況請恰分店人員。詳情：https://www.carrefour.com.tw/store-info/?store=五甲店#tab=info",
        "maps_url": "https://maps.apple/p/9iJiH8EzTcf6pI"
      },
      {
        "name": "金門店（量販）",
        "address": "892 金門縣金寧鄉伯玉路二段223號",
        "hours": "公車：前厝1站 紅1",
        "phone": "08-231-2015",
        "fax": "08-232-3309",
        "coordinates": "24.4402888,118.3382897",
        "transportation": "公車：前厝1站 紅1",
        "parking": "汽車94位、機車106位、殘障2位、親子2位。",
        "accepted_items": "（米、麵條、麥片、糖、鹽、料理包、泡麵、牙膏、牙刷、肥皂、毛巾、家用清潔劑、洗衣粉、沐浴乳、洗髮精、抹布、成人奶粉、嬰兒奶粉、罐頭、食用油、醬油調味料、成人紙尿布、嬰兒紙尿布、衛生紙/棉）",
        "notes": "本店為外島店，不確定能否捐贈。列表為建議捐贈品，實際狀況請恰分店人員。",
        "maps_url": "https://maps.apple/p/VmDdP8bPomFhU-"
      },
      {
        "name": "屏東店（量販）",
        "address": "900 屏東縣屏東市仁愛路188號",
        "hours": "無",
        "phone": "08-738-0310",
        "fax": "08-736-0125",
        "coordinates": "22.6831358,120.4980855",
        "transportation": "無",
        "parking": "汽車370位、機車300位、殘障6位、親子2位。",
        "accepted_items": "米、麵條、麥片、糖、鹽、料理包、泡麵、牙膏、牙刷、肥皂、毛巾、家用清潔劑、洗衣粉、沐浴乳、洗髮精、抹布、成人奶粉、嬰兒奶粉、罐頭、食用油、醬油調味料、成人紙尿布、嬰兒紙尿布、衛生紙/棉、貓狗飼料和罐頭",
        "notes": "列表為建議捐贈品，實際狀況請恰分店人員。詳情：https://www.carrefour.com.tw/store-info/?store=屏東店#tab=info",
        "maps_url": "https://maps.apple/p/eNv57f~7v1CHs7"
      },
      {
        "name": "新屏店（量販）",
        "address": "900 屏東縣屏東市台糖街3號",
        "hours": "公車：8202D，8202，8202F，8202，8215，8209，8210，515，506",
        "phone": "08-756-0005",
        "fax": "08-756-0012",
        "coordinates": "22.6637667,120.4891248",
        "transportation": "公車：8202D，8202，8202F，8202，8215，8209，8210，515，506",
        "parking": "汽車457位、機車237位、殘障12位、親子8位。",
        "accepted_items": "米、麵條、麥片、糖、鹽、料理包、泡麵、牙膏、牙刷、肥皂、毛巾、家用清潔劑、洗衣粉、沐浴乳、洗髮精、抹布、成人奶粉、嬰兒奶粉、罐頭、食用油、醬油調味料、成人紙尿布、嬰兒紙尿布、衛生紙/棉、貓狗飼料和罐頭",
        "notes": "列表為建議捐贈品，實際狀況請恰分店人員。詳情：https://www.carrefour.com.tw/store-info/?store=新屏店#tab=info",
        "maps_url": "https://maps.apple/p/pY9jJLsqH5zdvc"
      },
      {
        "name": "屏東自由店（超市）",
        "address": "900 屏東縣屏東市自由路618號",
        "hours": "無",
        "phone": "08-766-3568",
        "fax": "08-766-3567",
        "coordinates": "22.6835042,120.4828918",
        "transportation": "無",
        "parking": "汽車50位、機車50位。20元/小時。",
        "accepted_items": "米、麵條、麥片、糖、鹽、料理包、泡麵、牙膏、牙刷、肥皂、毛巾、家用清潔劑、洗衣粉、沐浴乳、洗髮精、抹布、成人奶粉、嬰兒奶粉、罐頭、食用油、醬油調味料、成人紙尿布、嬰兒紙尿布、衛生紙/棉",
        "notes": "列表為建議捐贈品，實際狀況請恰分店人員。",
        "maps_url": "https://maps.apple/p/C3AsRRdyUZwtEI"
      },
      {
        "name": "潮州光春店（超市）",
        "address": "920 屏東縣潮州鎮光春路216號",
        "hours": "公車：光復路口 1773，8239，1780，再步行約3分鐘；火車 + 計程車：潮州火車站前站出口，轉計程車約10分鐘",
        "phone": "08-8203955",
        "fax": "無",
        "coordinates": "22.5388422,120.5389737",
        "transportation": "公車：光復路口 1773，8239，1780，再步行約3分鐘；火車 + 計程車：潮州火車站前站出口，轉計程車約10分鐘",
        "parking": "汽車10位、機車30位、殘障1位。",
        "accepted_items": "米、麵條、麥片、糖、鹽、料理包、泡麵、牙膏、牙刷、肥皂、毛巾、家用清潔劑、洗衣粉、沐浴乳、洗髮精、抹布、成人奶粉、嬰兒奶粉、罐頭、食用油、醬油調味料、成人紙尿布、嬰兒紙尿布、衛生紙/棉",
        "notes": "列表為建議捐贈品，實際狀況請恰分店人員。",
        "maps_url": "https://maps.apple/p/QyADvY9g49nh6r"
      },
      {
        "name": "台東店（量販）",
        "address": "950 台東縣臺東市正氣路300之1號",
        "hours": "無",
        "phone": "08-933-3258",
        "fax": "08-933-5111",
        "coordinates": "22.7549727,121.1488522",
        "transportation": "無",
        "parking": "汽車134位、機車58位。",
        "accepted_items": "米、麵條、麥片、糖、鹽、料理包、泡麵、牙膏、牙刷、肥皂、毛巾、家用清潔劑、洗衣粉、沐浴乳、洗髮精、抹布、成人奶粉、嬰兒奶粉、罐頭、食用油、醬油調味料、成人紙尿布、嬰兒紙尿布、衛生紙/棉、貓狗飼料和罐頭",
        "notes": "列表為建議捐贈品，實際狀況請恰分店人員。詳情：https://www.carrefour.com.tw/store-info/?store=台東店#tab=info",
        "maps_url": "https://maps.apple/p/XkbumHhKMQQ5~u"
      },
      {
        "name": "花蓮林森店（超市）",
        "address": "970 花蓮縣花蓮市林森路349號",
        "hours": "無",
        "phone": "03-8907120",
        "fax": "無",
        "coordinates": "23.9812038,121.6047881",
        "transportation": "無",
        "parking": "無",
        "accepted_items": "米、麵條、麥片、糖、鹽、料理包、泡麵、牙膏、牙刷、肥皂、毛巾、家用清潔劑、洗衣粉、沐浴乳、洗髮精、抹布、成人奶粉、嬰兒奶粉、罐頭、食用油、醬油調味料、成人紙尿布、嬰兒紙尿布、衛生紙/棉",
        "notes": "列表為建議捐贈品，實際狀況請恰分店人員。",
        "maps_url": "https://maps.apple/p/Lds69jRvEKHBC5"
      },
      {
        "name": "花蓮店（量販）",
        "address": "971 花蓮縣新城鄉嘉里路15號B1",
        "hours": "無",
        "phone": "03-826-7979",
        "fax": "03-826-2866",
        "coordinates": "24.0152588,121.6099244",
        "transportation": "無",
        "parking": "汽車462位、機車229位、殘障10位、親子20位。",
        "accepted_items": "米、麵條、麥片、糖、鹽、料理包、泡麵、牙膏、牙刷、肥皂、毛巾、家用清潔劑、洗衣粉、沐浴乳、洗髮精、抹布、成人奶粉、嬰兒奶粉、罐頭、食用油、醬油調味料、成人紙尿布、嬰兒紙尿布、衛生紙/棉、貓狗飼料和罐頭",
        "notes": "列表為建議捐贈品，實際狀況請恰分店人員。詳情：https://www.carrefour.com.tw/store-info/?store=花蓮店#tab=info",
        "maps_url": "https://maps.apple/p/NzY3PE4FMCA3Le"
      }
    ]
  }
]